"Time","GPS Speed","GPS Nsat","GPS LatAcc","GPS LonAcc","GPS Slope","GPS Heading","GPS Gyro","GPS Altitude","GPS PosAccuracy","GPS SpdAccuracy","GPS Radius","GPS Latitude","GPS Longitude","LoggerTemp","External Voltage","RPM","F Heave","F Roll","R Heave","R Roll","InlineAcc","LateralAcc","VerticalAcc","RollRate","PitchRate","YawRate","Luminosity","Inverter Enable","D4 Gate Driver B","D3 Module C","D1 Control Board","D4 Torque Shudde","D3 Motor Tempera","D2 Motor Speed","D4 DC Bus Curren","D1 Phase A Curre","D3 Phase C Curre","D2 Phase B Curre","D4 VBC Vq Voltag","D3 VAB Vd Voltag","D2 Output Voltag","D1 DC Bus Voltag","D4 Iq","D3 Id","D2 Flux Feedback","D1 Flux Command","D7 Direction Com","D6 Inverter Enab","D7 BMS Torque Li","D1 Commanded Tor","D2 Torque Feedba","D4 Iq Command","D3 Id Command","Fast Torque Comm","Fast Torque Feed","Fast Motor Speed","Fast DC Bus Volt","Inverter Enable dup 1","Speed Mode Enabl","Direction Comman","Torque Command","Inverter Dischar","Torque Limit Com","Current","Voltage","RDTActive","D3 HV Input Current","SteeringWheelPos","BrakeLightActive","TSAL Active","BrakeSensor1","BrakeSensor2","SpeedFrontRight","SpeedRearLeft","SpeedFrontLeft","SpeedRearRight","SpeedFrontRightMph","SpeedRearLeftMph","SpeedFrontLeftMph","SpeedRearRightMph","FrontLeft","FrontRight","RearLeft","RearRight","Temperature","CoolantTemp","MotorPumpStatus1","MotorPumpStatus2","APPS1","APPS2","LV Current","LV Voltage","HeartBit","Pack Current","Pack Inst Voltag","Pack SOC","Average Temperat","Pack DCL","High Temperature","Low Temperature","High Cell Voltag","Low Cell Voltage","MultiPurpose  01","Maximum Pack Vol","Minimum Cell Vol","GPS Speed","GPS Nsat","GPS LatAcc","GPS LonAcc","GPS Slope","GPS Heading","GPS Gyro","GPS Altitude","GPS PosAccuracy","GPS Radius","GPS Latitude","GPS Longitude"
"0.000","1.1856","3","0.0000","0.0000","0.2501","-107.6435","0.0000","330.3872","200.0000","14.4200","10000.0000","40.84816134","-80.34661019","40.3125","11.3200","0.0000","12.7344","-0.8784","9.7969","-2.7480","-0.0188","0.0230","-0.9941","0.8354","-0.1487","-0.3447","59.1562","0.0000","32.5000","30.5000","32.0000","0.0000","29.6000","0.0000","0.0000","-0.5000","-0.4000","0.1000","-0.4000","0.0000","0.0000","0.6000","0.1000","-0.4000","-18.5420","0.0340","1.0000","0.0000","0.0000","0.0000","0.0000","0.0000","0.0000","0.0000","0.5000","0.0000","0.5000","0.0000","0.0000","1.0000","0.0000","0.0000","0.0000","0.0000","0.0000","0.0000","0.0000","0.0000","1.0000","0.0000","7.8738","3.6611","0.0000","0.0000","0.0000","0.0000","0.0000","0.0000","0.0000","0.0000","0.0000","0.0000","0.0000","0.0000","37.2500","0.0000","0.0000","0.0000","-1.6300","-1.2900","1.5600","20060.0000","0.0000","0.0000","344199.9688","60.0000","25.0000","164.0000","38.0000","13.0000","11.5000","4.0000","1.0000","0.0000","0.0000","2.6521","3.0000","0.0000","0.0000","0.2501","-107.6435","0.0000","330.3872","8294500.0000","10000.0000","40.8482","-80.3466"
"0.050","1.1856","3","0.0000","0.0000","0.2501","-107.6435","0.0000","330.3872","200.0000","14.4200","10000.0000","40.84816134","-80.34661019","40.3125","11.3200","0.0000","12.7344","-0.8784","9.7969","-2.7480","-0.0196","0.0227","-0.9944","0.8320","-0.1325","-0.3756","59.1562","0.0000","32.5000","30.5000","32.0000","0.0000","29.6000","0.0000","0.0000","-0.5000","-0.4000","0.1000","-0.4000","0.0000","0.0000","0.6000","0.1000","-0.4000","-18.5420","0.0340","1.0000","0.0000","0.0000","0.0000","0.0000","0.0000","0.0000","0.0000","0.5000","0.0000","0.5000","0.0000","0.0000","1.0000","0.0000","0.0000","0.0000","0.0000","0.0000","0.0000","0.0000","0.0000","1.0000","0.0000","7.8738","3.6611","0.0000","0.0000","0.0000","0.0000","0.0000","0.0000","0.0000","0.0000","0.0000","0.0000","0.0000","0.0000","37.2500","0.0000","0.0000","0.0000","-1.6300","-1.2900","1.5600","20060.0000","0.0000","0.0000","344199.9688","60.0000","25.0000","164.0000","38.0000","13.0000","11.5000","4.0000","1.0000","0.0000","0.0000","2.6521","3.0000","0.0000","0.0000","0.2501","-107.6435","0.0000","330.3872","8294500.0000","10000.0000","40.8482","-80.3466"
"0.100","1.1856","3","0.0000","0.0000","0.2501","-107.6435","0.0000","330.3872","200.0000","14.4200","10000.0000","40.84816134","-80.34661019","40.3125","11.3200","0.0000","12.7344","-0.8784","9.7969","-2.7480","-0.0193","0.0231","-0.9946","0.8369","-0.0991","-0.3921","59.1562","0.0000","32.5000","30.5000","32.0000","0.0000","29.6000","0.0000","0.0000","-0.5000","-0.4000","0.1000","-0.4000","0.0000","0.0000","0.6000","0.1000","-0.4000","-18.5420","0.0340","1.0000","0.0000","0.0000","0.0000","0.0000","0.0000","0.0000","0.0000","0.5000","0.0000","0.5000","0.0000","0.0000","1.0000","0.0000","0.0000","0.0000","0.0000","0.0000","0.0000","0.0000","0.0000","1.0000","0.0000","7.8738","3.6611","0.0000","0.0000","0.0000","0.0000","0.0000","0.0000","0.0000","0.0000","0.0000","0.0000","0.0000","0.0000","37.2500","0.0000","0.0000","0.0000","-1.6300","-1.2900","1.9022","20137.2637","0.0000","0.0000","344199.9688","60.0000","25.0000","164.0000","38.0000","13.0000","11.5000","3.9923","1.0000","0.0000","0.0000","2.6521","3.0000","0.0000","0.0000","0.2501","-107.6435","0.0000","330.3872","8294500.0000","10000.0000","40.8482","-80.3466"
"0.150","1.1856","3","0.0000","0.0000","0.2501","-107.6435","0.0000","330.3872","200.0000","14.4200","10000.0000","40.84816134","-80.34661019","40.3125","11.3200","0.0000","12.7078","-0.8567","9.7703","-2.7535","-0.0191","0.0231","-0.9946","0.8455","-0.0851","-0.3989","59.1719","0.0000","32.5000","30.5000","32.0000","0.0000","29.6000","0.0000","0.0000","-0.2647","-0.1804","0.2412","-0.4784","-0.0471","0.0000","0.6000","0.2569","-0.0863","-18.5420","0.0340","1.0000","0.0000","0.0000","0.0000","0.1000","0.0000","0.0000","0.0000","0.4774","0.0000","0.5097","0.0000","0.0000","1.0000","0.0000","0.0000","0.0000","0.0000","0.0000","0.0000","0.0000","0.0000","1.0000","0.0000","7.8738","3.6611","0.0000","0.0000","0.0000","0.0000","0.0000","0.0000","0.0000","0.0000","0.0000","0.0000","0.0000","0.0000","37.2500","0.0000","0.0000","0.0000","-1.6300","-1.2900","2.3408","20236.3203","0.0000","0.0000","344199.9688","60.0000","25.0000","164.0000","38.0000","13.0000","11.5000","3.9442","1.0000","0.0000","0.0000","2.6521","3.0000","0.0000","0.0000","0.2501","-107.6435","0.0000","330.3872","8294500.0000","10000.0000","40.8482","-80.3466"
"0.200","1.1856","3","0.0000","0.0000","0.2501","-107.6435","0.0000","330.3872","200.0000","14.4200","10000.0000","40.84816134","-80.34661019","40.3125","11.3200","0.0000","12.7391","-0.8593","9.7766","-2.6063","-0.0193","0.0232","-0.9946","0.8428","-0.0815","-0.4021","59.2109","0.0000","32.5000","30.5000","32.0000","0.0000","29.6000","0.0000","0.0000","0.4706","0.5059","0.6824","-0.7235","-0.1941","0.0000","0.6000","0.7471","0.8941","-18.5420","0.0340","1.0000","0.0000","0.0000","0.0000","0.3941","0.0000","0.0000","0.0000","0.1011","0.0000","0.6710","0.0000","0.0000","1.0000","0.0000","0.0000","0.0000","0.0000","0.0000","0.0000","0.0000","0.0000","1.0000","0.0000","7.8738","3.6611","0.0000","0.0000","0.0000","0.0000","0.0000","0.0000","0.0000","0.0000","0.0000","0.0000","0.0000","0.0000","37.2500","0.0000","0.0000","0.0000","-1.6300","-1.2900","2.2449","20204.0000","0.0000","0.0000","344199.9688","60.0000","25.0000","164.0000","38.0000","13.0000","11.5038","3.9000","1.0000","0.0000","0.0000","2.6521","3.0000","0.0000","0.0000","0.2501","-107.6435","0.0000","330.3872","8294500.0000","10000.0000","40.8482","-80.3466"
"0.250","1.1856","3","0.0000","0.0000","0.2501","-107.6435","0.0000","330.3872","200.0000","14.4200","10000.0000","40.84816134","-80.34661019","40.3125","11.3200","0.0000","12.7250","-0.8710","9.8141","-2.7605","-0.0196","0.0230","-0.9951","0.8398","-0.0688","-0.3875","59.2500","0.0000","32.5000","30.5000","32.0000","0.0000","29.6000","0.0000","0.0000","0.8765","0.9176","0.9176","-0.8314","-0.2588","0.0000","0.5863","1.0039","1.4216","-18.5420","0.0340","1.0000","0.0000","0.0000","0.0000","0.5412","0.0000","0.0000","0.0000","-0.1560","0.0000","0.7890","0.0000","0.0000","1.0000","0.0000","0.0000","0.0000","0.0000","0.0000","0.0000","0.0000","0.0000","1.0000","0.0000","7.8738","3.6611","0.0000","0.0000","0.0000","0.0000","0.0000","0.0000","0.0000","0.0000","0.0000","0.0000","0.0000","0.0000","37.2500","0.0000","0.0000","0.0000","-1.6263","-1.2900","1.8734","20104.0000","0.0000","0.0000","344199.9688","60.0000","25.0000","164.0000","38.0000","13.0000","11.5519","3.9000","1.0000","0.0000","0.0000","2.6521","3.0000","0.0000","0.0000","0.2501","-107.6435","0.0000","330.3872","8294500.0000","10000.0000","40.8482","-80.3466"
"0.300","1.1856","3","0.0000","0.0000","0.2501","-107.6435","0.0000","330.3872","200.0000","14.4200","10000.0000","40.84816134","-80.34661019","40.3125","11.3167","0.0000","12.7406","-0.8515","9.8125","-2.7559","-0.0196","0.0229","-0.9946","0.8120","-0.0572","-0.3682","59.3021","0.0000","32.5000","30.5000","32.0000","0.0000","29.6000","0.0000","0.0000","0.4353","0.6235","0.6235","-0.5863","-0.1118","0.0000","0.5373","0.6608","0.7843","-18.5420","0.0340","1.0000","0.0000","0.0000","0.0000","0.3451","0.0000","0.0000","0.0000","0.0637","0.0000","0.7341","0.0000","0.0000","1.0000","0.0000","0.0000","0.0000","0.0000","0.0000","0.0000","0.0000","0.0000","1.0000","0.0000","7.8738","3.6611","0.0000","0.0000","0.0000","0.0000","0.0000","0.0000","0.0000","0.0000","0.0000","0.0000","0.0000","0.0000","37.2500","0.0000","0.0000","0.0000","-1.6080","-1.2900","1.7285","20075.8496","0.0000","0.0000","344199.9688","60.0000","25.0000","164.0000","38.0000","13.0000","11.6000","3.9000","1.0000","0.0000","0.0000","2.6521","3.0000","0.0000","0.0000","0.2501","-107.6435","0.0000","330.3872","8294500.0000","10000.0000","40.8482","-80.3466"
"0.350","1.1856","3","0.0000","0.0000","0.2501","-107.6435","0.0000","330.3872","200.0000","14.4200","10000.0000","40.84816134","-80.34661019","40.3125","11.3133","0.0000","12.7188","-0.8533","9.8031","-2.7406","-0.0197","0.0231","-0.9946","0.8206","-0.0716","-0.3799","59.3542","0.0000","32.5000","30.5000","32.0000","0.0000","29.6000","0.0000","0.0000","0.0294","0.2941","0.3059","-0.4000","0.0588","0.0000","0.5000","0.2941","0.1706","-18.5420","0.0340","1.0000","0.0000","0.0000","0.0000","0.1490","0.0000","0.0000","0.0000","0.1174","0.0000","0.7000","0.0000","0.0000","1.0000","0.0000","0.0000","0.0000","0.0000","0.0000","0.0000","0.0000","0.0000","1.0000","0.0000","7.8738","3.6611","0.0000","0.0000","0.0000","0.0000","0.0000","0.0000","0.0000","0.0000","0.0000","0.0000","0.0000","0.0000","37.2500","0.0000","0.0000","0.0000","-1.5904","-1.2896","1.7615","20104.1504","0.0000","0.0000","344199.9688","60.0000","25.0000","164.0000","38.0000","13.0000","11.6000","3.9962","1.0000","0.0000","0.0000","2.6521","3.0000","0.0000","0.0000","0.2501","-107.6435","0.0000","330.3872","8294500.0000","10000.0000","40.8482","-80.3466"
"0.400","1.1856","3","0.0000","0.0000","0.2501","-107.6435","0.0000","330.3872","200.0000","14.4200","10000.0000","40.84816134","-80.34661019","40.3125","11.3120","0.0000","12.7172","-0.8617","9.7266","-2.7391","-0.0196","0.0236","-0.9946","0.8384","-0.1022","-0.4043","59.3906","0.0000","32.5000","30.5000","32.0000","0.0000","29.6000","0.0000","0.0000","-0.2647","-0.1471","-0.0863","-0.4000","0.3039","0.0000","0.5000","-0.1471","-0.3686","-18.5420","0.0340","1.0000","0.0000","0.0000","0.0000","-0.0471","0.0000","0.0000","0.0000","-0.1000","0.0000","0.7000","0.0000","0.0000","1.0000","0.0000","0.0000","0.0000","0.0000","0.0000","0.0000","0.0000","0.0000","1.0000","0.0000","7.8738","3.6611","0.0000","0.0000","0.0000","0.0000","0.0000","0.0000","0.0000","0.0000","0.0000","0.0000","0.0000","0.0000","37.2500","0.0000","0.0000","0.0000","-1.6106","-1.2694","1.7486","20101.1426","0.0000","0.0000","344199.9688","60.0000","25.0000","164.0000","38.0000","13.0000","11.6000","4.0923","1.0000","0.0000","0.0000","2.6521","3.0000","0.0000","0.0000","0.2501","-107.6435","0.0000","330.3872","8294500.0000","10000.0000","40.8482","-80.3466"
"0.450","1.1856","3","0.0000","0.0000","0.2501","-107.6435","0.0000","330.3872","200.0000","14.4200","10000.0000","40.84816134","-80.34661019","40.3125","11.3120","0.0000","12.7078","-0.8614","9.8156","-2.7609","-0.0197","0.0230","-0.9951","0.8362","-0.1010","-0.3883","59.4167","0.0000","32.5000","30.5000","32.0000","0.0000","29.6000","0.0000","0.0000","-0.3725","-0.3333","-0.2824","-0.4000","0.3333","0.0000","0.5098","-0.3529","-0.5843","-18.5420","0.0340","1.0000","0.0000","0.0000","0.0000","-0.1245","0.0000","0.0000","0.0000","-0.0839","0.0000","0.6419","0.0000","0.0000","1.0000","0.0000","0.0000","0.0000","0.0000","0.0000","0.0000","0.0000","0.0000","1.0000","0.0000","7.8738","3.6611","0.0000","0.0000","0.0000","0.0000","0.0000","0.0000","0.0000","0.0000","0.0000","0.0000","0.0000","0.0000","37.2500","0.0000","0.0000","0.0000","-1.6292","-1.2500","1.6771","20058.2852","0.0000","0.0000","344199.9688","60.0000","25.0000","164.0000","38.0000","13.0000","11.6000","4.0562","1.0000","0.0000","0.0000","2.6521","3.0000","0.0000","0.0000","0.2501","-107.6435","0.0000","330.3872","8294500.0000","10000.0000","40.8482","-80.3466"
"0.500","1.1856","3","0.0000","0.0000","0.2501","-107.6435","0.0000","330.3872","200.0000","14.4200","10000.0000","40.84816134","-80.34661019","40.3125","11.3120","0.0000","12.7453","-0.8629","9.7359","-2.7645","-0.0199","0.0229","-0.9946","0.8340","-0.1006","-0.3740","59.4375","0.0000","32.5000","30.5000","32.0000","0.0000","29.6000","0.0000","0.0000","0.2647","0.5000","0.3059","-0.4000","-0.5000","0.0000","0.5588","0.3824","0.4941","-18.5420","0.0340","1.0000","0.0000","0.0000","0.0000","0.2186","0.0000","0.0000","0.0000","0.1312","0.0000","0.5344","0.0000","0.0000","1.0000","0.0000","0.0000","0.0000","0.0000","0.0000","0.0000","0.0000","0.0000","1.0000","0.0000","7.8738","3.6611","0.0000","0.0000","0.0000","0.0000","0.0000","0.0000","0.0000","0.0000","0.0000","0.0000","0.0000","0.0000","37.2500","0.0000","0.0000","0.0000","-1.6092","-1.2500","1.6653","20047.6406","0.0000","0.0000","344199.9688","60.0000","25.0000","164.0000","38.0000","13.0000","11.6000","4.0086","1.0000","0.0000","0.0000","2.6521","3.0000","0.0000","0.0000","0.2501","-107.6435","0.0000","330.3872","8294500.0000","10000.0000","40.8482","-80.3466"
"0.550","1.1856","3","0.0000","0.0000","0.2501","-107.6435","0.0000","330.3872","200.0000","14.4200","10000.0000","40.84816134","-80.34661019","40.3125","11.3120","0.0000","12.7391","-0.9100","9.7688","-2.7555","-0.0201","0.0231","-0.9941","0.8223","-0.0935","-0.3757","59.4375","0.0000","32.5000","30.5000","32.0000","0.0000","29.6000","0.0000","0.0000","0.7373","1.0902","0.7059","-0.3608","-1.0902","0.0000","0.5922","0.8902","1.2824","-18.5420","0.0340","1.0000","0.0000","0.0000","0.0000","0.4382","0.0000","0.0000","0.0000","0.0538","0.0000","0.4634","0.0000","0.0000","1.0000","0.0000","0.0000","0.0000","0.0000","0.0000","0.0000","0.0000","0.0000","1.0000","0.0000","7.8738","3.6611","0.0000","0.0000","0.0000","0.0000","0.0000","0.0000","0.0000","0.0000","0.0000","0.0000","0.0000","0.0000","37.2500","0.0000","0.0000","0.0000","-1.5900","-1.2500","1.7691","20099.5273","0.0000","0.0000","344199.9688","60.0000","25.0000","164.0000","38.0000","13.0000","11.5602","4.0000","1.0000","0.0000","0.0000","2.6521","3.0000","0.0000","0.0000","0.2501","-107.6435","0.0000","330.3872","8294500.0000","10000.0000","40.8482","-80.3466"
"0.600","1.1856","3","0.0000","0.0000","0.2501","-107.6435","0.0000","330.3872","200.0000","14.4200","10000.0000","40.84816134","-80.34661019","40.3125","11.3120","0.0000","12.7094","-0.8742","9.7984","-2.7523","-0.0204","0.0235","-0.9941","0.8101","-0.0889","-0.3823","59.4375","0.0000","32.5000","30.5000","32.0000","0.0000","29.6000","0.0000","0.0000","0.3451","0.4039","0.1176","-0.1157","-0.4039","0.0000","0.5431","0.2039","0.5471","-18.5420","0.0340","1.0000","0.0000","0.0000","0.0000","0.0951","0.0000","0.0000","0.0000","-0.1613","0.0000","0.4097","0.0000","0.0000","1.0000","0.0000","0.0000","0.0000","0.0000","0.0000","0.0000","0.0000","0.0000","1.0000","0.0000","7.8748","3.6622","0.0000","0.0000","0.0000","0.0000","0.0000","0.0000","0.0000","0.0000","0.0000","0.0000","0.0000","0.0000","37.2500","0.0000","0.0000","0.0000","-1.5900","-1.2500","1.8500","20127.4277","0.0010","0.0000","344199.9688","60.0000","25.0000","164.0000","38.0000","13.0000","11.5116","4.0000","1.0000","0.0000","0.0000","2.6521","3.0000","0.0000","0.0000","0.2501","-107.6435","0.0000","330.3872","8294500.0000","10000.0000","40.8482","-80.3466"
"0.650","1.1856","3","0.0000","0.0000","0.2501","-107.6435","0.0000","330.3872","200.0000","14.4200","10000.0000","40.84816134","-80.34661019","40.3125","11.3120","0.0000","12.7203","-0.8661","9.7922","-2.7465","-0.0206","0.0231","-0.9941","0.8245","-0.0795","-0.3781","59.3958","0.0000","32.5000","30.5000","32.0000","0.0000","29.6000","0.0000","0.0000","0.0000","-0.2294","-0.3824","0.0824","0.1882","0.0000","0.5000","-0.3765","-0.0941","-18.5420","0.0340","1.0000","0.0000","0.0000","0.0000","-0.1863","0.0000","0.0000","0.0000","0.1086","0.0000","0.4441","0.0000","0.0000","1.0000","0.0000","0.0000","0.0000","0.0000","0.0000","0.0000","0.0000","0.0000","1.0000","0.0000","7.8989","3.6898","0.0000","0.0000","0.0000","0.0000","0.0000","0.0000","0.0000","0.0000","0.0000","0.0000","0.0000","0.0000","37.2500","0.0000","0.0000","0.0000","-1.5911","-1.2511","1.8500","20070.2852","0.0506","0.0000","344199.9688","60.0000","25.0000","164.0000","38.0000","13.0000","11.5365","4.0000","1.0000","0.0000","0.0000","2.6521","3.0000","0.0000","0.0000","0.2501","-107.6435","0.0000","330.3872","8294500.0000","10000.0000","40.8482","-80.3466"
"0.700","1.1856","3","0.0000","0.0000","0.2501","-107.6435","0.0000","330.3872","200.0000","14.4200","10000.0000","40.84816134","-80.34661019","40.3125","11.3120","0.0000","12.7188","-0.8854","9.8328","-2.7387","-0.0200","0.0228","-0.9946","0.8311","-0.1016","-0.3955","59.3438","0.0000","32.5000","30.5000","32.0000","0.0000","29.6000","0.0000","0.0000","0.0000","-0.4745","-0.2353","-0.0647","0.0902","0.0000","0.5000","-0.1804","-0.0451","-18.5420","0.0340","1.0000","0.0000","0.0000","0.0000","-0.0882","0.0000","0.0000","0.0000","0.4849","0.0000","0.4978","0.0000","0.0000","1.0000","0.0000","0.0000","0.0000","0.0000","0.0000","0.0000","0.0000","0.0000","1.0000","0.0000","7.9211","3.7152","0.0000","0.0000","0.0000","0.0000","0.0000","0.0000","0.0000","0.0000","0.0000","0.0000","0.0000","0.0000","37.2500","0.0000","0.0000","0.0000","-1.6094","-1.2694","1.8620","20022.8574","0.1003","0.0000","344199.9688","60.0000","25.0000","164.0000","38.0000","13.0000","11.5846","4.0000","1.0000","0.0000","0.0000","2.6521","3.0000","0.0000","0.0000","0.2501","-107.6435","0.0000","330.3872","8294500.0000","10000.0000","40.8482","-80.3466"
"0.750","1.1856","3","0.0000","0.0000","0.2501","-107.6435","0.0000","330.3872","200.0000","14.4200","10000.0000","40.84816134","-80.34661019","40.3125","11.3120","0.0000","12.7250","-0.8714","9.8000","-2.7551","-0.0202","0.0232","-0.9946","0.8308","-0.1106","-0.4125","59.2812","0.0000","32.5000","30.5000","32.0000","0.0000","29.6000","0.0000","0.0000","0.0078","-0.6806","-0.1155","-0.2078","0.0078","0.0000","0.4961","-0.0196","0.0039","-18.5420","0.0340","1.0000","0.0000","0.0000","0.0000","0.0000","0.0000","0.0000","0.0000","0.2419","0.0000","0.5000","0.0000","0.0000","1.0000","0.0000","0.0000","0.0000","0.0000","0.0000","0.0000","0.0000","0.0000","1.0000","0.0000","7.8967","3.6873","0.0000","0.0000","0.0000","0.0000","0.0000","0.0000","0.0000","0.0000","0.0000","0.0000","0.0000","0.0000","37.2500","0.0000","0.0000","0.0000","-1.6278","-1.2878","1.9620","20046.6660","0.1500","0.0000","344199.9688","60.0000","25.0000","164.0000","38.0000","13.0000","11.6327","4.0000","1.0000","0.0000","0.0000","2.6521","3.0000","0.0000","0.0000","0.2501","-107.6435","0.0000","330.3872","8294500.0000","10000.0000","40.8482","-80.3466"
"0.800","1.1856","3","0.0000","0.0000","0.2501","-107.6435","0.0000","330.3872","200.0000","14.4200","10000.0000","40.84816134","-80.34661019","40.3125","11.3120","0.0000","12.7094","-0.8722","9.7688","-2.7527","-0.0202","0.0234","-0.9946","0.8257","-0.1147","-0.3987","59.2031","0.0000","32.5000","30.5000","32.0000","0.0000","29.6000","0.0000","0.0000","0.1049","-0.4379","-0.3097","-0.3059","0.1059","0.0000","0.4471","-0.2647","0.0529","-18.5420","0.0340","1.0000","0.0000","0.0000","0.0000","0.0000","0.0000","0.0000","0.0000","0.0110","0.0000","0.5055","0.0000","0.0000","1.0000","0.0000","0.0000","0.0000","0.0000","0.0000","0.0000","0.0000","0.0000","1.0000","0.0000","7.8751","3.6611","0.0000","0.0000","0.0000","0.0000","0.0000","0.0000","0.0000","0.0000","0.0000","0.0000","0.0000","0.0000","37.2500","0.0000","0.0000","0.0000","-1.6300","-1.2900","2.0600","20070.1914","0.1996","0.0000","344199.9688","60.0000","25.0000","164.0000","38.0000","13.0000","11.6808","4.0000","1.0000","0.0000","0.0000","2.6521","3.0000","0.0000","0.0000","0.2501","-107.6435","0.0000","330.3872","8294500.0000","10000.0000","40.8482","-80.3466"
"0.850","1.1856","3","0.0000","0.0000","0.2501","-107.6435","0.0000","330.3872","200.0000","14.4200","10000.0000","40.84816134","-80.34661019","40.3125","11.3120","0.0000","12.7188","-0.8748","9.8156","-2.7500","-0.0201","0.0230","-0.9949","0.8108","-0.1128","-0.3854","59.1250","0.0000","32.5000","30.4992","32.0000","0.0000","29.6009","0.0000","0.0000","0.1960","-0.1990","-0.5040","-0.4137","0.2059","0.0000","0.4039","-0.5098","0.0863","-18.5420","0.0340","1.0000","0.0000","0.0000","0.0000","-0.0118","0.0000","0.0000","0.0000","0.1209","0.0000","0.5604","0.0000","0.0000","1.0000","0.0000","0.0000","0.0000","0.0000","0.0000","0.0000","0.0000","0.0000","1.0000","0.0000","7.8973","3.6611","0.0000","0.0000","0.0000","0.0000","0.0000","0.0000","0.0000","0.0000","0.0000","0.0000","0.0000","0.0000","37.2500","0.0000","0.0000","0.0000","-1.6300","-1.2900","2.0600","20079.7148","0.2493","0.0000","344199.9688","60.0000","25.0000","164.0000","38.0000","13.0000","11.6712","4.0000","1.0000","0.0000","0.0000","2.6521","3.0000","0.0000","0.0000","0.2501","-107.6435","0.0000","330.3872","8294500.0000","10000.0000","40.8482","-80.3466"
"0.900","1.1856","3","0.0000","0.0000","0.2501","-107.6435","0.0000","330.3872","200.0000","14.4200","10000.0000","40.84816134","-80.34661019","40.3125","11.3120","0.0000","12.7172","-0.8704","9.8094","-2.7449","-0.0204","0.0231","-0.9946","0.8110","-0.0986","-0.3979","59.0078","0.0000","32.5000","30.4942","32.0000","0.0000","29.6059","0.0000","0.0000","-0.0020","-0.1495","-0.7020","-0.7569","0.3529","0.0000","0.5020","-0.7549","-0.2569","-18.5420","0.0340","1.0000","0.0000","0.0000","0.0000","-0.2078","0.0000","0.0000","0.0000","0.2457","0.0000","0.5848","0.0000","0.0000","1.0000","0.0000","0.0000","0.0000","0.0000","0.0000","0.0000","0.0000","0.0000","1.0000","0.0000","7.9194","3.6611","0.0000","0.0000","0.0000","0.0000","0.0000","0.0000","0.0000","0.0000","0.0000","0.0000","0.0000","0.0000","37.2500","0.0000","0.0000","0.0000","-1.6300","-1.2900","2.0600","20089.2383","0.2989","0.0000","344199.9688","60.0000","25.0000","164.0000","38.0000","13.0000","11.6231","4.0000","1.0000","0.0000","0.0000","2.6521","3.0000","0.0000","0.0000","0.2501","-107.6435","0.0000","330.3872","8294500.0000","10000.0000","40.8482","-80.3466"
"0.950","1.1856","3","0.0000","0.0000","0.2501","-107.6435","0.0000","330.3872","200.0000","14.4200","10000.0000","40.84816134","-80.34661019","40.3125","11.3120","0.0000","12.7312","-0.8844","9.7937","-2.7406","-0.0205","0.0234","-0.9946","0.8271","-0.0829","-0.3939","58.8906","0.0000","32.5000","30.4892","32.0000","0.0000","29.6109","0.0000","0.0000","-0.2000","-0.1000","-0.9000","-1.1000","0.5000","0.0000","0.6000","-1.0000","-0.6000","-18.5420","0.0340","1.0000","0.0000","0.0000","0.0000","-0.3941","0.0000","0.0000","0.0000","0.4087","0.0000","0.5304","0.0000","0.0000","1.0000","0.0000","0.0000","0.0000","0.0000","0.0000","0.0000","0.0000","0.0000","1.0000","0.0000","7.9221","3.6611","0.0000","0.0000","0.0000","0.0000","0.0000","0.0000","0.0000","0.0000","0.0000","0.0000","0.0000","0.0000","37.2500","0.0000","0.0000","0.0000","-1.6300","-1.2900","2.1213","20107.5234","0.3486","0.0000","344199.9688","60.0000","25.0000","164.0000","38.0000","13.0000","11.5750","3.9750","1.0000","0.0000","0.0000","2.6521","3.0000","0.0000","0.0000","0.2501","-107.6435","0.0000","330.3872","8294500.0000","10000.0000","40.8482","-80.3466"
"1.000","1.1856","3","0.0000","0.0000","0.2501","-107.6435","0.0000","330.3872","200.0000","14.4200","10000.0000","40.84816134","-80.34661019","40.3047","11.3120","0.0000","12.7125","-0.8825","9.8281","-2.7508","-0.0202","0.0228","-0.9951","0.8276","-0.1070","-0.3931","58.7891","0.0000","32.5000","30.4842","32.0000","0.0000","29.6159","0.0000","0.0000","0.0451","0.1451","-0.2137","-0.9039","0.1078","0.0000","0.6000","-0.2647","0.0373","-18.5420","0.0340","1.0000","0.0000","0.0000","0.0000","-0.1000","0.0000","0.0000","0.0000","0.3581","0.0000","0.5237","0.0000","0.0000","1.0000","0.0000","0.0000","0.0000","0.0000","0.0000","0.0000","0.0000","0.0000","1.0000","0.0000","7.9221","3.6611","0.0000","0.0000","0.0000","0.0000","0.0000","0.0000","0.0000","0.0000","0.0000","0.0000","0.0000","0.0000","37.2500","0.0000","0.0000","0.0000","-1.6156","-1.2648","2.1880","20126.5723","0.3982","0.0000","344199.9688","60.0000","25.0000","164.0000","38.0000","13.0000","11.5269","3.9269","1.0000","0.0000","0.0000","2.6521","3.0000","0.0000","0.0000","0.2501","-107.6435","0.0000","330.3872","8294500.0000","10000.0000","40.8482","-80.3466"
"1.050","1.1856","3","0.0000","0.0000","0.2501","-107.6435","0.0000","330.3872","200.0000","14.4200","10000.0000","40.84816134","-80.34661019","40.2917","11.3120","0.0000","12.7094","-0.8747","9.7969","-2.7492","-0.0207","0.0230","-0.9946","0.8477","-0.1237","-0.4006","58.6979","0.0000","32.5000","30.4792","32.0000","0.0000","29.6209","0.0000","0.0000","0.2902","0.3902","0.4725","-0.7078","-0.2843","0.0000","0.6000","0.4706","0.6745","-18.5420","0.0340","1.0000","0.0000","0.0000","0.0000","0.1941","0.0000","0.0000","0.0000","0.0355","0.0000","0.5774","0.0000","0.0000","1.0000","0.0000","0.0000","0.0000","0.0000","0.0000","0.0000","0.0000","0.0000","1.0000","0.0000","7.9359","3.6749","0.0000","0.0000","0.0000","0.0000","0.0000","0.0000","0.0000","0.0000","0.0000","0.0000","0.0000","0.0000","37.2500","0.0000","0.0000","0.0000","-1.5956","-1.2298","1.9548","20114.6738","0.4479","0.0000","344199.9688","60.0000","25.0000","164.0000","38.0000","13.0000","11.5000","3.9423","1.0000","0.0000","0.0000","2.6521","3.0000","0.0000","0.0000","0.2501","-107.6435","0.0000","330.3872","8294500.0000","10000.0000","40.8482","-80.3466"
"1.100","1.1856","3","0.0000","0.0000","0.2501","-107.6435","0.0000","330.3872","200.0000","14.4200","10000.0000","40.84816134","-80.34661019","40.2812","11.3127","0.0000","12.7437","-0.8534","9.8125","-2.7449","-0.0208","0.0232","-0.9941","0.8403","-0.1201","-0.4031","58.6094","0.0000","32.5000","30.4743","32.0000","0.0000","29.6258","0.0000","0.0000","0.5353","0.6353","0.7353","-0.7941","-0.4882","0.0000","0.6471","0.7824","1.1235","-18.5420","0.0340","1.0000","0.0000","0.0000","0.0000","0.3922","0.0000","0.0000","0.0000","-0.0065","0.0000","0.5688","0.0000","0.0000","1.0000","0.0000","0.0000","0.0000","0.0000","0.0000","0.0000","0.0000","0.0000","1.0000","0.0000","7.9634","3.7025","0.0000","0.0000","0.0000","0.0000","0.0000","0.0000","0.0000","0.0000","0.0000","0.0000","0.0000","0.0000","37.2500","0.0000","0.0000","0.0000","-1.5900","-1.2200","1.6557","20095.9805","0.4975","0.0000","344199.9688","60.0000","25.0000","164.0000","38.0000","13.0000","11.5000","4.0385","1.0000","0.0000","0.0000","2.6521","3.0000","0.0000","0.0000","0.2501","-107.6435","0.0000","330.3872","8294500.0000","10000.0000","40.8482","-80.3466"
"1.150","1.1856","3","0.0000","0.0000","0.2501","-107.6435","0.0000","330.3872","200.0000","14.4200","10000.0000","40.84816134","-80.34661019","40.2812","11.3160","0.0000","12.7219","-0.8689","9.8188","-2.7355","-0.0210","0.0228","-0.9946","0.8442","-0.0982","-0.3990","58.5312","0.0000","32.5000","30.4693","32.0000","0.0000","29.6308","0.0000","0.0000","0.7804","0.8804","0.9804","-0.8922","-0.6843","0.0000","0.6961","1.0765","1.5647","-18.5420","0.0340","1.0000","0.0000","0.0000","0.0000","0.5882","0.0000","0.0000","0.0000","0.1548","0.0000","0.5151","0.0000","0.0000","1.0000","0.0000","0.0000","0.0000","0.0000","0.0000","0.0000","0.0000","0.0000","1.0000","0.0000","7.9633","3.7023","0.0000","0.0000","0.0000","0.0000","0.0000","0.0000","0.0000","0.0000","0.0000","0.0000","0.0000","0.0000","37.2500","0.0000","0.0000","0.0000","-1.5900","-1.2200","1.7463","20093.2695","0.5472","0.0000","344199.9688","60.0000","25.0000","164.0000","38.0000","13.0000","11.5173","4.0827","1.0000","0.0000","0.0000","2.6521","3.0000","0.0000","0.0000","0.2501","-107.6435","0.0000","330.3872","8294500.0000","10000.0000","40.8482","-80.3466"
"1.200","1.1856","3","0.0000","0.0000","0.2501","-107.6435","0.0000","330.3872","200.0000","14.4200","10000.0000","40.84816134","-80.34661019","40.2812","11.3193","0.0000","12.7359","-0.8760","9.8703","-2.7539","-0.0208","0.0229","-0.9941","0.8252","-0.0984","-0.3936","58.4531","0.0000","32.5000","30.4643","32.0000","0.0000","29.6358","0.0000","0.0000","0.4392","0.4941","0.5941","-0.3588","-0.3843","0.0000","0.6098","0.6490","0.9235","-18.5420","0.0340","1.0000","0.0000","0.0000","0.0000","0.3235","0.0000","0.0000","0.0000","0.1604","0.0000","0.5791","0.0000","0.0000","1.0000","0.0000","0.0000","0.0000","0.0000","0.0000","0.0000","0.0000","0.0000","1.0000","0.0000","7.9354","3.6745","0.0000","0.0000","0.0000","0.0000","0.0000","0.0000","0.0000","0.0000","0.0000","0.0000","0.0000","0.0000","37.2500","0.0000","0.0000","0.0000","-1.6049","-1.2462","2.0204","20098.0762","0.5968","0.0000","344199.9688","60.0000","25.0000","164.0000","38.0000","13.0000","11.5654","4.0346","1.0000","0.0000","0.0000","2.6521","3.0000","0.0000","0.0000","0.2501","-107.6435","0.0000","330.3872","8294500.0000","10000.0000","40.8482","-80.3466"
"1.250","1.1856","3","0.0000","0.0000","0.2501","-107.6435","0.0000","330.3872","200.0000","14.4200","10000.0000","40.84816134","-80.34661019","40.2917","11.3200","0.0000","12.7312","-0.8733","9.7875","-2.7609","-0.0207","0.0232","-0.9944","0.8071","-0.1179","-0.3855","58.3958","0.0000","32.5000","30.4593","32.0000","0.0000","29.6408","0.0000","0.0000","0.0471","0.0529","0.1529","0.2294","-0.0412","0.0000","0.5118","0.1588","0.1882","-18.5420","0.0340","1.0000","0.0000","0.0000","0.0000","0.0294","0.0000","0.0000","0.0000","0.1055","0.0000","0.6890","0.0000","0.0000","1.0000","0.0000","0.0000","0.0000","0.0000","0.0000","0.0000","0.0000","0.0000","1.0000","0.0000","7.9221","3.6611","0.0000","0.0000","0.0000","0.0000","0.0000","0.0000","0.0000","0.0000","0.0000","0.0000","0.0000","0.0000","37.2500","0.0000","0.0000","0.0000","-1.6252","-1.2815","2.0300","20111.4277","0.6465","0.0000","344199.9688","60.0000","25.0000","164.0000","38.0000","13.0000","11.6000","4.0135","1.0000","0.0000","0.0000","2.6521","3.0000","0.0000","0.0000","0.2501","-107.6435","0.0000","330.3872","8294500.0000","10000.0000","40.8482","-80.3466"
"1.300","1.1856","3","0.0000","0.0000","0.2501","-107.6435","0.0000","330.3872","200.0000","14.4200","10000.0000","40.84816134","-80.34661019","40.3047","11.3200","0.0000","12.7266","-0.8859","9.7719","-2.7457","-0.0212","0.0232","-0.9946","0.8267","-0.1262","-0.3965","58.3438","0.0000","32.5000","30.4543","32.0000","0.0000","29.6458","0.0000","0.0000","0.4314","0.0863","0.3157","0.1706","-0.2157","0.0000","0.5431","0.4020","0.7471","-18.5420","0.0340","1.0000","0.0000","0.0000","0.0000","0.0000","0.0000","0.0000","0.0000","0.0511","0.0000","0.6511","0.0000","0.0000","1.0000","0.0000","0.0000","0.0000","0.0000","0.0000","0.0000","0.0000","0.0000","1.0000","0.0000","7.9221","3.6611","0.0000","0.0000","0.0000","0.0000","0.0000","0.0000","0.0000","0.0000","0.0000","0.0000","0.0000","0.0000","37.2500","0.0000","0.0000","0.0000","-1.6300","-1.2900","1.8633","20130.4766","0.6961","0.0000","344199.9688","60.0000","25.0000","164.0000","38.0000","13.0000","11.6000","4.0615","1.0000","0.0000","0.0000","2.6521","3.0000","0.0000","0.0000","0.2501","-107.6435","0.0000","330.3872","8294500.0000","10000.0000","40.8482","-80.3466"
"1.350","1.1856","3","0.0000","0.0000","0.2501","-107.6435","0.0000","330.3872","200.0000","14.4200","10000.0000","40.84816134","-80.34661019","40.3073","11.3200","0.0000","12.7219","-0.8673","9.7906","-2.7855","-0.0211","0.0229","-0.9946","0.8352","-0.1252","-0.3973","58.2917","0.0000","32.5000","30.4493","32.0000","0.0000","29.6508","0.0000","0.0000","0.9216","0.1843","0.5608","0.0235","-0.4608","0.0000","0.5922","0.7451","1.4824","-18.5420","0.0340","1.0000","0.0000","0.0000","0.0000","0.0000","0.0000","0.0000","0.0000","-0.0065","0.0000","0.6000","0.0000","0.0000","1.0000","0.0000","0.0000","0.0000","0.0000","0.0000","0.0000","0.0000","0.0000","1.0000","0.0000","7.9221","3.6762","0.0000","0.0000","0.0000","0.0000","0.0000","0.0000","0.0000","0.0000","0.0000","0.0000","0.0000","0.0000","37.2500","0.0000","0.0000","0.0000","-1.6300","-1.2900","1.8800","20144.7617","0.7458","0.0000","344199.9688","60.0000","25.0000","164.0000","38.0000","13.0000","11.5904","4.0904","1.0000","0.0000","0.0000","2.6521","3.0000","0.0000","0.0000","0.2501","-107.6435","0.0000","330.3872","8294500.0000","10000.0000","40.8482","-80.3466"
"1.400","1.1856","3","0.0000","0.0000","0.2501","-107.6435","0.0000","330.3872","200.0000","14.4200","10000.0000","40.84816134","-80.34661019","40.2943","11.3200","0.0000","12.7406","-0.8711","9.7672","-2.7523","-0.0207","0.0229","-0.9946","0.8330","-0.1125","-0.4116","58.2396","0.0000","32.5000","30.4443","32.0000","0.0000","29.6558","0.0000","0.0000","0.4647","0.0353","0.0235","0.2059","-0.2118","0.0000","0.5176","0.1412","0.6118","-18.5420","0.0340","1.0000","0.0000","0.0000","0.0000","-0.1686","0.0000","0.0000","0.0000","-0.1140","0.0000","0.6000","0.0000","0.0000","1.0000","0.0000","0.0000","0.0000","0.0000","0.0000","0.0000","0.0000","0.0000","1.0000","0.0000","7.9221","3.7040","0.0000","0.0000","0.0000","0.0000","0.0000","0.0000","0.0000","0.0000","0.0000","0.0000","0.0000","0.0000","37.2500","0.0000","0.0000","0.0000","-1.6158","-1.2652","2.0800","20154.2852","0.7954","0.0000","344199.9688","60.0000","25.0000","164.0000","38.0000","13.0000","11.5423","4.0423","1.0000","0.0000","0.0000","2.6521","3.0000","0.0000","0.0000","0.2501","-107.6435","0.0000","330.3872","8294500.0000","10000.0000","40.8482","-80.3466"
"1.450","1.1856","3","0.0000","0.0000","0.2501","-107.6435","0.0000","330.3872","200.0000","14.4200","10000.0000","40.84816134","-80.34661019","40.2812","11.3200","0.0000","12.7328","-0.8792","9.7672","-2.7516","-0.0210","0.0230","-0.9946","0.8501","-0.0992","-0.4263","58.1875","0.0000","32.5000","30.4393","32.0000","0.0000","29.6608","0.0000","0.0000","-0.1725","-0.1608","-0.6627","0.4510","0.1314","0.0000","0.4196","-0.6431","-0.5647","-18.5420","0.0340","1.0000","0.0000","0.0000","0.0000","-0.3647","0.0000","0.0000","0.0000","-0.2220","0.0000","0.6220","0.0000","0.0000","1.0000","0.0000","0.0000","0.0000","0.0000","0.0000","0.0000","0.0000","0.0000","1.0000","0.0000","7.9097","3.7163","0.0000","0.0000","0.0000","0.0000","0.0000","0.0000","0.0000","0.0000","0.0000","0.0000","0.0000","0.0000","37.2500","0.0000","0.0000","0.0000","-1.5976","-1.2334","2.1477","20137.5703","0.8451","0.0000","344199.9688","60.0000","25.0000","164.0000","38.0000","13.0000","11.5000","4.0000","1.0000","0.0000","0.0000","2.6521","3.0000","0.0000","0.0000","0.2501","-107.6435","0.0000","330.3872","8294500.0000","10000.0000","40.8482","-80.3466"
"1.500","1.1856","3","0.0000","0.0000","0.2501","-107.6435","0.0000","330.3872","200.0000","14.4200","10000.0000","40.84816134","-80.34661019","40.2812","11.3200","0.0000","12.7266","-0.8782","9.7672","-2.7789","-0.0210","0.0231","-0.9946","0.8540","-0.1011","-0.4160","58.1484","0.0000","32.5000","30.4343","32.0000","0.0000","29.6658","0.0000","0.0000","-0.1039","-0.0431","-0.4863","0.0294","0.0824","0.0000","0.4392","-0.4863","-0.4078","-18.5420","0.0340","1.0000","0.0000","0.0000","0.0000","-0.2392","0.0000","0.0000","0.0000","-0.3319","0.0000","0.7319","0.0000","0.0000","1.0000","0.0000","0.0000","0.0000","0.0000","0.0000","0.0000","0.0000","0.0000","1.0000","0.0000","7.8875","3.7163","0.0000","0.0000","0.0000","0.0000","0.0000","0.0000","0.0000","0.0000","0.0000","0.0000","0.0000","0.0000","37.2500","0.0000","0.0000","0.0000","-1.5812","-1.2200","2.0168","20081.4961","0.8947","0.0000","344199.9688","60.0000","25.0000","164.0000","38.0000","13.0000","11.5000","4.0000","1.0000","0.0000","0.0000","2.6521","3.0000","0.0000","0.0000","0.2501","-107.6435","0.0000","330.3872","8294500.0000","10000.0000","40.8482","-80.3466"
"1.550","1.1856","3","0.0000","0.0000","0.2501","-107.6435","0.0000","330.3872","200.0000","14.4200","10000.0000","40.84816134","-80.34661019","40.2812","11.3200","0.0000","12.7156","-0.8670","9.7484","-2.7539","-0.0209","0.0231","-0.9946","0.8464","-0.1214","-0.4042","58.1094","0.0000","32.5000","30.4293","32.0000","0.0000","29.6708","0.0000","0.0000","0.1412","0.1529","-0.0941","-0.5588","-0.0647","0.0000","0.4882","-0.0941","0.0824","-18.5420","0.0340","1.0000","0.0000","0.0000","0.0000","-0.0431","0.0000","0.0000","0.0000","-0.3174","0.0000","0.7380","0.0000","0.0000","1.0000","0.0000","0.0000","0.0000","0.0000","0.0000","0.0000","0.0000","0.0000","1.0000","0.0000","7.8830","3.7058","0.0000","0.0000","0.0000","0.0000","0.0000","0.0000","0.0000","0.0000","0.0000","0.0000","0.0000","0.0000","37.2500","0.0000","0.0000","0.0000","-1.5661","-1.2200","1.9453","20044.8145","0.9444","0.0000","344199.9688","60.0000","25.0000","164.0000","38.0000","13.0000","11.5000","4.0038","1.0000","0.0000","0.0000","2.6521","3.0000","0.0000","0.0000","0.2501","-107.6435","0.0000","330.3872","8294500.0000","10000.0000","40.8482","-80.3466"
"1.600","1.1856","3","0.0000","0.0000","0.2501","-107.6435","0.0000","330.3872","200.0000","14.4200","10000.0000","40.84816134","-80.34661019","40.2812","11.3200","0.0000","12.7250","-0.8760","9.7672","-2.7766","-0.0208","0.0230","-0.9946","0.8320","-0.1331","-0.3757","58.0547","0.0000","32.5000","30.4244","32.0000","0.0000","29.6757","0.0000","0.0000","0.0510","0.2000","0.0373","-0.4020","-0.0627","0.0000","0.5000","0.0373","0.0510","-18.5420","0.0340","1.0000","0.0000","0.0000","0.0000","0.0000","0.0000","0.0000","0.0000","-0.1000","0.0000","0.5750","0.0000","0.0000","1.0000","0.0000","0.0000","0.0000","0.0000","0.0000","0.0000","0.0000","0.0000","1.0000","0.0000","7.9071","3.6782","0.0000","0.0000","0.0000","0.0000","0.0000","0.0000","0.0000","0.0000","0.0000","0.0000","0.0000","0.0000","37.2499","0.0000","0.0000","0.0000","-1.5691","-1.2291","2.0425","20063.3340","0.9940","0.0000","344199.9688","60.0000","25.0000","164.0000","38.0000","13.0000","11.5000","4.1000","1.0000","0.0000","0.0000","2.6521","3.0000","0.0000","0.0000","0.2501","-107.6435","0.0000","330.3872","8294500.0000","10000.0000","40.8482","-80.3466"
"1.650","1.1856","3","0.0000","0.0000","0.2501","-107.6435","0.0000","330.3872","200.0000","14.4200","10000.0000","40.84816134","-80.34661019","40.2812","11.3200","0.0000","12.7250","-0.8881","9.7437","-2.7672","-0.0214","0.0230","-0.9946","0.8279","-0.1208","-0.3457","57.9896","0.0000","32.5000","30.4194","32.0000","0.0000","29.6807","0.0000","0.0000","-0.1451","0.2000","0.0863","-0.0098","-0.0137","0.0000","0.5000","0.0863","-0.1451","-18.5420","0.0340","1.0000","0.0000","0.0000","0.0000","0.0000","0.0000","0.0000","0.0000","0.1161","0.0000","0.5290","0.0000","0.0000","1.0000","0.0000","0.0000","0.0000","0.0000","0.0000","0.0000","0.0000","0.0000","1.0000","0.0000","7.9128","3.6611","0.0000","0.0000","0.0000","0.0000","0.0000","0.0000","0.0000","0.0000","0.0000","0.0000","0.0000","0.0000","37.2468","0.0000","0.0000","0.0000","-1.5842","-1.2442","2.1130","20077.5723","0.9557","0.0000","344199.9688","60.0000","25.0000","164.0000","38.0000","13.0000","11.5000","4.1962","1.0000","0.0000","0.0000","2.6521","3.0000","0.0000","0.0000","0.2501","-107.6435","0.0000","330.3872","8294500.0000","10000.0000","40.8482","-80.3466"
"1.700","1.1856","3","0.0000","0.0000","0.2501","-107.6435","0.0000","330.3872","200.0000","14.4200","10000.0000","40.84816134","-80.34661019","40.2812","11.3200","0.0000","12.7219","-0.8619","9.7594","-2.7566","-0.0209","0.0230","-0.9946","0.8315","-0.0965","-0.3752","57.9245","0.0000","32.5000","30.4144","32.0000","0.0000","29.6857","0.0000","0.0000","-0.1294","0.2353","0.1353","-0.2529","0.0706","0.0000","0.5353","0.1353","-0.0588","-18.5420","0.0340","1.0000","0.0000","0.0000","0.0000","0.1088","0.0000","0.0000","0.0000","0.3312","0.0000","0.5828","0.0000","0.0000","1.0000","0.0000","0.0000","0.0000","0.0000","0.0000","0.0000","0.0000","0.0000","1.0000","0.0000","7.8884","3.6611","0.0000","0.0000","0.0000","0.0000","0.0000","0.0000","0.0000","0.0000","0.0000","0.0000","0.0000","0.0000","37.2437","0.0000","0.0000","0.0000","-1.6025","-1.2625","1.9431","20053.3008","0.9054","0.0000","344199.9688","60.0000","25.0000","164.0000","38.0000","13.0000","11.5000","4.2000","1.0000","0.0000","0.0000","2.6521","3.0000","0.0000","0.0000","0.2501","-107.6435","0.0000","330.3872","8294500.0000","10000.0000","40.8482","-80.3466"
"1.750","1.1856","3","0.0000","0.0000","0.2501","-107.6435","0.0000","330.3872","200.0000","14.4200","10000.0000","40.84816134","-80.34661019","40.2812","11.3200","0.0000","12.7234","-0.8690","9.7437","-2.7645","-0.0208","0.0230","-0.9946","0.8088","-0.0863","-0.3911","57.8594","0.0000","32.5000","30.4094","32.0000","0.0000","29.6907","0.0000","0.0000","-0.0314","0.2843","0.1843","-0.7431","0.1686","0.0000","0.5843","0.1843","0.1373","-18.5420","0.0340","1.0000","0.0000","0.0000","0.0000","0.2559","0.0000","0.0000","0.0000","0.3277","0.0000","0.6000","0.0000","0.0000","1.0000","0.0000","0.0000","0.0000","0.0000","0.0000","0.0000","0.0000","0.0000","1.0000","0.0000","7.8835","3.6723","0.0000","0.0000","0.0000","0.0000","0.0000","0.0000","0.0000","0.0000","0.0000","0.0000","0.0000","0.0000","37.2406","0.0000","0.0000","0.0000","-1.6227","-1.2827","1.7800","20028.6543","0.8551","0.0000","344199.9688","60.0000","25.0000","164.0000","38.0000","13.0000","11.5000","4.2000","1.0000","0.0000","0.0000","2.6521","3.0000","0.0000","0.0000","0.2501","-107.6435","0.0000","330.3872","8294500.0000","10000.0000","40.8482","-80.3466"
"1.800","1.1856","3","0.0000","0.0000","0.2501","-107.6435","0.0000","330.3872","200.0000","14.4200","10000.0000","40.84816134","-80.34661019","40.2812","11.3200","0.0000","12.7047","-0.8612","9.8266","-2.7609","-0.0213","0.0231","-0.9946","0.8149","-0.0862","-0.3774","57.7943","0.0000","32.5000","30.4044","32.0000","0.0000","29.6957","0.0000","0.0000","0.1667","0.5000","0.3667","-0.6667","-0.0333","0.0000","0.6667","0.4000","0.4667","-18.5420","0.0340","1.0000","0.0000","0.0000","0.0000","0.2657","0.0000","0.0000","0.0000","0.2213","0.0000","0.6000","0.0000","0.0000","1.0000","0.0000","0.0000","0.0000","0.0000","0.0000","0.0000","0.0000","0.0000","1.0000","0.0000","7.9079","3.7001","0.0000","0.0000","0.0000","0.0000","0.0000","0.0000","0.0000","0.0000","0.0000","0.0000","0.0000","0.0000","37.2374","0.0000","0.0000","0.0000","-1.6300","-1.2900","1.7800","19995.0000","0.8048","0.0000","344199.9688","60.0000","25.0000","164.0000","38.0000","13.0000","11.5000","4.1154","1.0000","0.0000","0.0000","2.6521","3.0000","0.0000","0.0000","0.2501","-107.6435","0.0000","330.3872","8294500.0000","10000.0000","40.8482","-80.3466"
"1.850","1.1856","3","0.0000","0.0000","0.2501","-107.6435","0.0000","330.3872","200.0000","14.4200","10000.0000","40.84816134","-80.34661019","40.2812","11.3227","0.0000","12.7047","-0.8930","9.8000","-2.7480","-0.0210","0.0230","-0.9946","0.8232","-0.0996","-0.3762","57.7396","0.0000","32.5000","30.4006","32.0007","0.0000","29.7028","0.0000","0.0000","0.4118","0.7941","0.6118","-0.3235","-0.3765","0.0000","0.7647","0.6941","0.8588","-18.5420","0.0340","1.0000","0.0000","0.0000","0.0000","0.2167","0.0000","0.0000","0.0000","0.2435","0.0000","0.6000","0.0000","0.0000","1.0000","0.0000","0.0000","0.0000","0.0000","0.0000","0.0000","0.0000","0.0000","1.0000","0.0000","7.9221","3.7046","0.0000","0.0000","0.0000","0.0000","0.0000","0.0000","0.0000","0.0000","0.0000","0.0000","0.0000","0.0000","37.2343","0.0000","0.0000","0.0000","-1.6300","-1.2900","1.7800","19961.3457","0.7545","0.0000","344199.9688","60.0000","25.0000","164.0000","38.0000","13.0000","11.5000","4.0192","1.0000","0.0000","0.0000","2.6521","3.0000","0.0000","0.0000","0.2501","-107.6435","0.0000","330.3872","8294500.0000","10000.0000","40.8482","-80.3466"
"1.900","1.1856","3","0.0000","0.0000","0.2501","-107.6435","0.0000","330.3872","200.0000","14.4200","10000.0000","40.84816134","-80.34661019","40.2812","11.3260","0.0000","12.7141","-0.8802","9.7734","-2.7430","-0.0213","0.0226","-0.9951","0.8311","-0.1181","-0.3757","57.6875","0.0000","32.5000","30.4056","32.0057","0.0000","29.7228","0.0000","0.0000","0.5000","0.6176","0.4804","-0.2627","-0.4373","0.0000","0.7373","0.5804","0.9059","-18.5420","0.0340","1.0000","0.0000","0.0000","0.0000","0.1353","0.0000","0.0000","0.0000","0.2978","0.0000","0.6000","0.0000","0.0000","1.0000","0.0000","0.0000","0.0000","0.0000","0.0000","0.0000","0.0000","0.0000","1.0000","0.0000","7.9221","3.6767","0.0000","0.0000","0.0000","0.0000","0.0000","0.0000","0.0000","0.0000","0.0000","0.0000","0.0000","0.0000","37.2312","0.0000","0.0000","0.0000","-1.6300","-1.2739","1.9720","20056.0000","0.7042","0.0000","344199.9688","60.0000","25.0000","164.0000","38.0000","13.0000","11.5385","3.9615","1.0000","0.0000","0.0000","2.6521","3.0000","0.0000","0.0000","0.2501","-107.6435","0.0000","330.3872","8294500.0000","10000.0000","40.8482","-80.3466"
"1.950","1.1856","3","0.0000","0.0000","0.2501","-107.6435","0.0000","330.3872","200.0000","14.4200","10000.0000","40.84816134","-80.34661019","40.2812","11.3280","0.0000","12.7094","-0.8820","9.7750","-2.7473","-0.0215","0.0230","-0.9941","0.8447","-0.0999","-0.3652","57.6354","0.0000","32.5000","30.4106","32.0107","0.0000","29.7428","0.0000","0.0000","0.5000","0.1765","0.1373","-0.3608","-0.3392","0.0000","0.6392","0.2373","0.7588","-18.5420","0.0340","1.0000","0.0000","0.0000","0.0000","0.0373","0.0000","0.0000","0.0000","0.1979","0.0000","0.4979","0.0000","0.0000","1.0000","0.0000","0.0000","0.0000","0.0000","0.0000","0.0000","0.0000","0.0000","1.0000","0.0000","7.9221","3.6611","0.0000","0.0000","0.0000","0.0000","0.0000","0.0000","0.0000","0.0000","0.0000","0.0000","0.0000","0.0000","37.2281","0.0000","0.0000","0.0000","-1.6300","-1.2389","2.1720","20156.0000","0.6539","0.0000","344199.9688","60.0000","25.0000","164.0000","38.0000","13.0000","11.5865","3.9135","1.0000","0.0000","0.0000","2.6521","3.0000","0.0000","0.0000","0.2501","-107.6435","0.0000","330.3872","8294500.0000","10000.0000","40.8482","-80.3466"
"2.000","1.1856","3","0.0000","0.0000","0.2501","-107.6435","0.0000","330.3872","200.0000","14.4200","10000.0000","40.84816134","-80.34661019","40.2812","11.3280","0.0000","12.7375","-0.8850","9.7469","-2.8043","-0.0214","0.0228","-0.9946","0.8516","-0.0736","-0.3420","57.5833","0.0000","32.5000","30.4156","32.0157","0.0000","29.7629","0.0000","0.0000","0.3824","0.1471","0.1471","-0.4882","-0.2412","0.0000","0.5706","0.2471","0.6412","-18.5420","0.0340","1.0000","0.0000","0.0000","0.0000","0.0912","0.0000","0.0000","0.0000","0.1000","0.0000","0.4130","0.0000","0.0000","1.0000","0.0000","0.0000","0.0000","0.0000","0.0000","0.0000","0.0000","0.0000","1.0000","0.0000","7.9221","3.6611","0.0000","0.0000","0.0000","0.0000","0.0000","0.0000","0.0000","0.0000","0.0000","0.0000","0.0000","0.0000","37.2250","0.0000","0.0000","0.0000","-1.6207","-1.2200","2.0280","20153.6191","0.6036","0.0000","344199.9688","60.0000","25.0000","164.0000","38.0000","13.0000","11.6000","3.9346","1.0000","0.0000","0.0000","2.6521","3.0000","0.0000","0.0000","0.2501","-107.6435","0.0000","330.3872","8294500.0000","10000.0000","40.8482","-80.3466"
"2.050","1.1856","3","0.0000","0.0000","0.2501","-107.6435","0.0000","330.3872","200.0000","14.4200","10000.0000","40.84816134","-80.34661019","40.2812","11.3280","0.0000","12.7063","-0.8713","9.7719","-2.7699","-0.0211","0.0228","-0.9946","0.8552","-0.0815","-0.3396","57.5312","0.0000","32.5000","30.4206","32.0207","0.0000","29.7829","0.0000","0.0000","0.1863","0.3922","0.3922","-0.6353","-0.1431","0.0000","0.5216","0.4922","0.5431","-18.5420","0.0340","1.0000","0.0000","0.0000","0.0000","0.2382","0.0000","0.0000","0.0000","0.1000","0.0000","0.5761","0.0000","0.0000","1.0000","0.0000","0.0000","0.0000","0.0000","0.0000","0.0000","0.0000","0.0000","1.0000","0.0000","7.9221","3.6734","0.0000","0.0000","0.0000","0.0000","0.0000","0.0000","0.0000","0.0000","0.0000","0.0000","0.0000","0.0000","37.2218","0.0000","0.0000","0.0000","-1.6005","-1.2200","1.8280","20134.5723","0.5533","0.0000","344199.9688","60.0000","25.0000","164.0000","38.0000","13.0000","11.6000","3.9827","1.0000","0.0000","0.0000","2.6521","3.0000","0.0000","0.0000","0.2501","-107.6435","0.0000","330.3872","8294500.0000","10000.0000","40.8482","-80.3466"
"2.100","1.1856","3","0.0000","0.0000","0.2501","-107.6435","0.0000","330.3872","200.0000","14.4200","10000.0000","40.84816134","-80.34661019","40.2812","11.3280","0.0000","12.7297","-0.8871","9.7953","-2.7586","-0.0215","0.0230","-0.9951","0.8618","-0.1049","-0.3411","57.4922","0.0000","32.5000","30.4256","32.0257","0.0000","29.8029","0.0000","0.0000","0.2647","0.5000","0.5000","-0.6176","-0.3471","0.0000","0.5275","0.6000","0.6647","-18.5420","0.0340","1.0000","0.0000","0.0000","0.0000","0.3000","0.0000","0.0000","0.0000","0.0097","0.0000","0.6613","0.0000","0.0000","1.0000","0.0000","0.0000","0.0000","0.0000","0.0000","0.0000","0.0000","0.0000","1.0000","0.0000","7.9221","3.7012","0.0000","0.0000","0.0000","0.0000","0.0000","0.0000","0.0000","0.0000","0.0000","0.0000","0.0000","0.0000","37.2187","0.0000","0.0000","0.0000","-1.5900","-1.2266","1.7547","20086.5723","0.5030","0.0000","344199.9688","60.0000","25.0000","164.0000","38.0000","13.0000","11.6308","4.0000","1.0000","0.0000","0.0000","2.6521","3.0000","0.0000","0.0000","0.2501","-107.6435","0.0000","330.3872","8294500.0000","10000.0000","40.8482","-80.3466"
"2.150","1.1856","3","0.0000","0.0000","0.2501","-107.6435","0.0000","330.3872","200.0000","14.4200","10000.0000","40.84816134","-80.34661019","40.2812","11.3280","0.0000","12.7312","-0.8764","9.7656","-2.7617","-0.0211","0.0234","-0.9944","0.8423","-0.1194","-0.3431","57.4531","0.0000","32.5000","30.4306","32.0307","0.0000","29.8229","0.0000","0.0000","0.5588","0.5000","0.5000","-0.4706","-0.7882","0.0000","0.5765","0.6000","0.9588","-18.5420","0.0340","1.0000","0.0000","0.0000","0.0000","0.3000","0.0000","0.0000","0.0000","-0.3667","0.0000","0.5000","0.0000","0.0000","1.0000","0.0000","0.0000","0.0000","0.0000","0.0000","0.0000","0.0000","0.0000","1.0000","0.0000","7.9221","3.7035","0.0000","0.0000","0.0000","0.0000","0.0000","0.0000","0.0000","0.0000","0.0000","0.0000","0.0000","0.0000","37.2156","0.0000","0.0000","0.0000","-1.5900","-1.2404","1.7213","20029.4277","0.4527","0.0000","344199.9688","60.0000","25.0000","164.0000","38.0000","13.0000","11.6788","4.0000","1.0000","0.0000","0.0000","2.6521","3.0000","0.0000","0.0000","0.2501","-107.6435","0.0000","330.3872","8294500.0000","10000.0000","40.8482","-80.3466"
"2.200","1.1856","3","0.0000","0.0000","0.2501","-107.6435","0.0000","330.3872","200.0000","14.4200","10000.0000","40.84816134","-80.34661019","40.2812","11.3280","0.0000","12.7266","-0.8720","9.7906","-2.7527","-0.0217","0.0233","-0.9946","0.8232","-0.0905","-0.3667","57.4297","0.0000","32.5000","30.4356","32.0357","0.0000","29.8429","0.0000","0.0000","0.5471","0.4745","0.3725","-0.4000","-0.7706","0.0000","0.5490","0.4471","0.8451","-18.5420","0.0340","1.0000","0.0000","0.0000","0.0000","0.2206","0.0000","0.0000","0.0000","-0.5796","0.0000","0.4000","0.0000","0.0000","1.0000","0.0000","0.0000","0.0000","0.0000","0.0000","0.0000","0.0000","0.0000","1.0000","0.0000","7.9221","3.6756","0.0000","0.0000","0.0000","0.0000","0.0000","0.0000","0.0000","0.0000","0.0000","0.0000","0.0000","0.0000","37.2125","0.0000","0.0000","0.0000","-1.5900","-1.2561","1.7760","20016.2852","0.4024","0.0000","344199.9688","60.0000","25.0000","164.0000","38.0000","13.0000","11.6472","4.0264","1.0000","0.0000","0.0000","2.6521","3.0000","0.0000","0.0000","0.2501","-107.6435","0.0000","330.3872","8294500.0000","10000.0000","40.8482","-80.3466"
"2.250","1.1856","3","0.0000","0.0000","0.2501","-107.6435","0.0000","330.3872","200.0000","14.4200","10000.0000","40.84816134","-80.34661019","40.2812","11.3280","0.0000","12.7063","-0.8700","9.8109","-2.7645","-0.0215","0.0234","-0.9944","0.8223","-0.0952","-0.4076","57.4167","0.0000","32.5000","30.4406","32.0407","0.0000","29.8630","0.0000","0.0000","0.2529","0.4255","0.1275","-0.4000","-0.3294","0.0000","0.4510","0.1529","0.3549","-18.5420","0.0340","1.0000","0.0000","0.0000","0.0000","0.0735","0.0000","0.0000","0.0000","-0.5258","0.0000","0.4000","0.0000","0.0000","1.0000","0.0000","0.0000","0.0000","0.0000","0.0000","0.0000","0.0000","0.0000","1.0000","0.0000","7.9221","3.6611","0.0000","0.0000","0.0000","0.0000","0.0000","0.0000","0.0000","0.0000","0.0000","0.0000","0.0000","0.0000","37.2094","0.0000","0.0000","0.0000","-1.5900","-1.2763","1.8760","20025.8086","0.3521","0.0000","344199.9688","60.0000","25.0000","164.0000","38.0000","13.0000","11.5528","4.0736","1.0000","0.0000","0.0000","2.6521","3.0000","0.0000","0.0000","0.2501","-107.6435","0.0000","330.3872","8294500.0000","10000.0000","40.8482","-80.3466"
"2.300","1.1856","3","0.0000","0.0000","0.2501","-107.6435","0.0000","330.3872","200.0000","14.4200","10000.0000","40.84816134","-80.34661019","40.2786","11.3280","0.0000","12.7297","-0.8791","9.7797","-2.7441","-0.0207","0.0232","-0.9941","0.8223","-0.1278","-0.3962","57.4010","0.0000","32.5000","30.4456","32.0457","0.0000","29.8830","0.0000","0.0000","-0.0882","0.3059","-0.0471","-0.4706","0.0412","0.0000","0.4471","-0.0706","-0.1353","-18.5420","0.0340","1.0000","0.0000","0.0000","0.0000","0.0245","0.0000","0.0000","0.0000","-0.4161","0.0000","0.4839","0.0000","0.0000","1.0000","0.0000","0.0000","0.0000","0.0000","0.0000","0.0000","0.0000","0.0000","1.0000","0.0000","7.9221","3.6611","0.0000","0.0000","0.0000","0.0000","0.0000","0.0000","0.0000","0.0000","0.0000","0.0000","0.0000","0.0000","37.2062","0.0000","0.0000","0.0000","-1.5965","-1.2900","1.8853","20030.0000","0.3018","0.0000","344199.9688","60.0000","25.0000","164.0000","38.0000","13.0000","11.5000","4.0784","1.0000","0.0000","0.0000","2.6521","3.0000","0.0000","0.0000","0.2501","-107.6435","0.0000","330.3872","8294500.0000","10000.0000","40.8482","-80.3466"
"2.350","1.1856","3","0.0000","0.0000","0.2501","-107.6435","0.0000","330.3872","200.0000","14.4200","10000.0000","40.84816134","-80.34661019","40.2656","11.3280","0.0000","12.7234","-0.8716","9.7797","-2.7617","-0.0212","0.0235","-0.9944","0.8179","-0.1469","-0.3722","57.3750","0.0000","32.5000","30.4507","32.0508","0.0000","29.9030","0.0000","0.0000","-0.4804","0.1098","-0.1451","-0.6176","0.3353","0.0000","0.5451","-0.2176","-0.6255","-18.5420","0.0340","1.0000","0.0000","0.0000","0.0000","0.0735","0.0000","0.0000","0.0000","-0.2548","0.0000","0.6452","0.0000","0.0000","1.0000","0.0000","0.0000","0.0000","0.0000","0.0000","0.0000","0.0000","0.0000","1.0000","0.0000","7.9221","3.6639","0.0000","0.0000","0.0000","0.0000","0.0000","0.0000","0.0000","0.0000","0.0000","0.0000","0.0000","0.0000","37.2031","0.0000","0.0000","0.0000","-1.6167","-1.2900","1.8234","20030.0000","0.2515","0.0000","344199.9688","60.0000","25.0000","164.0000","38.0000","13.0000","11.5000","4.0294","1.0000","0.0000","0.0000","2.6521","3.0000","0.0000","0.0000","0.2501","-107.6435","0.0000","330.3872","8294500.0000","10000.0000","40.8482","-80.3466"
"2.400","1.1856","3","0.0000","0.0000","0.2501","-107.6435","0.0000","330.3872","200.0000","14.4200","10000.0000","40.84816134","-80.34661019","40.2526","11.3280","0.0000","12.7281","-0.8706","9.7844","-2.7465","-0.0217","0.0231","-0.9951","0.8369","-0.1142","-0.3799","57.3490","0.0000","32.5000","30.4557","32.0558","0.0000","29.9230","0.0000","0.0000","-0.4650","0.0427","-0.0505","-0.6353","0.3275","0.0000","0.6431","-0.1059","-0.5333","-18.5420","0.0340","1.0000","0.0000","0.0000","0.0000","0.1451","0.0000","0.0000","0.0000","-0.0912","0.0000","0.7000","0.0000","0.0000","1.0000","0.0000","0.0000","0.0000","0.0000","0.0000","0.0000","0.0000","0.0000","1.0000","0.0000","7.9221","3.6918","0.0000","0.0000","0.0000","0.0000","0.0000","0.0000","0.0000","0.0000","0.0000","0.0000","0.0000","0.0000","37.2000","0.0000","0.0000","0.0000","-1.6300","-1.2831","1.7905","20027.0000","0.2012","0.0000","344199.9688","60.0000","25.0000","164.0000","38.0000","13.0000","11.5192","4.0000","1.0000","0.0000","0.0000","2.6521","3.0000","0.0000","0.0000","0.2501","-107.6435","0.0000","330.3872","8294500.0000","10000.0000","40.8482","-80.3466"
"2.450","1.1856","3","0.0000","0.0000","0.2501","-107.6435","0.0000","330.3872","200.0000","14.4200","10000.0000","40.84816134","-80.34661019","40.2500","11.3280","0.0000","12.7172","-0.8702","9.8125","-2.7523","-0.0213","0.0230","-0.9949","0.8672","-0.1066","-0.3790","57.3229","0.0000","32.5000","30.4607","32.0608","0.0000","29.9430","0.0000","0.0000","0.0689","0.1398","0.2893","-0.4882","-0.0647","0.0000","0.7412","0.3353","0.3000","-18.5420","0.0340","1.0000","0.0000","0.0000","0.0000","0.2431","0.0000","0.0000","0.0000","0.0736","0.0000","0.7000","0.0000","0.0000","1.0000","0.0000","0.0000","0.0000","0.0000","0.0000","0.0000","0.0000","0.0000","1.0000","0.0000","7.9221","3.7129","0.0000","0.0000","0.0000","0.0000","0.0000","0.0000","0.0000","0.0000","0.0000","0.0000","0.0000","0.0000","37.1969","0.0000","0.0000","0.0000","-1.6300","-1.2629","1.8255","20017.0000","0.1509","0.0000","344199.9688","60.0000","25.0000","164.0000","38.0000","13.0000","11.5673","4.0000","1.0000","0.0000","0.0000","2.6521","3.0000","0.0000","0.0000","0.2501","-107.6435","0.0000","330.3872","8294500.0000","10000.0000","40.8482","-80.3466"
"2.500","1.1856","3","0.0000","0.0000","0.2501","-107.6435","0.0000","330.3872","200.0000","14.4200","10000.0000","40.84816134","-80.34661019","40.2500","11.3280","0.0000","12.7547","-0.8878","9.8141","-2.7535","-0.0216","0.0232","-0.9946","0.8628","-0.1152","-0.3672","57.2969","0.0000","32.5000","30.4657","32.0658","0.0000","29.9631","0.0000","0.0000","0.2683","0.1624","0.3683","-0.3608","-0.3000","0.0000","0.7608","0.4431","0.5451","-18.5420","0.0340","1.0000","0.0000","0.0000","0.0000","0.2176","0.0000","0.0000","0.0000","0.3739","0.0000","0.6543","0.0000","0.0000","1.0000","0.0000","0.0000","0.0000","0.0000","0.0000","0.0000","0.0000","0.0000","1.0000","0.0000","7.9221","3.6851","0.0000","0.0000","0.0000","0.0000","0.0000","0.0000","0.0000","0.0000","0.0000","0.0000","0.0000","0.0000","37.1937","0.0000","0.0000","0.0000","-1.6235","-1.2451","1.8500","20025.8652","0.1006","0.0000","344199.9688","60.0000","25.0000","164.0000","38.0000","13.0000","11.6000","4.0000","1.0000","0.0000","0.0000","2.6521","3.0000","0.0000","0.0000","0.2501","-107.6435","0.0000","330.3872","8294500.0000","10000.0000","40.8482","-80.3466"
