"Time","GPS Speed","GPS Nsat","GPS LatAcc","GPS LonAcc","GPS Slope","GPS Heading","GPS Gyro","GPS Altitude","GPS PosAccuracy","GPS SpdAccuracy","GPS Radius","GPS Latitude","GPS Longitude","LoggerTemp","External Voltage","RPM","F Heave","F Roll","R Heave","R Roll","InlineAcc","LateralAcc","VerticalAcc","RollRate","PitchRate","YawRate","Luminosity","Inverter Enable","D4 Gate Driver B","D3 Module C","D1 Control Board","D4 Torque Shudde","D3 Motor Tempera","D2 Motor Speed","D4 DC Bus Curren","D1 Phase A Curre","D3 Phase C Curre","D2 Phase B Curre","D4 VBC Vq Voltag","D3 VAB Vd Voltag","D2 Output Voltag","D1 DC Bus Voltag","D4 Iq","D3 Id","D2 Flux Feedback","D1 Flux Command","D7 Direction Com","D6 Inverter Enab","D7 BMS Torque Li","D1 Commanded Tor","D2 Torque Feedba","D4 Iq Command","D3 Id Command","Fast Torque Comm","Fast Torque Feed","Fast Motor Speed","Fast DC Bus Volt","Inverter Enable dup 1","Speed Mode Enabl","Direction Comman","Torque Command","Inverter Dischar","Torque Limit Com","Current","Voltage","RDTActive","D3 HV Input Current","SteeringWheelPos","BrakeLightActive","TSAL Active","BrakeSensor1","BrakeSensor2","SpeedFrontRight","SpeedRearLeft","SpeedFrontLeft","SpeedRearRight","SpeedFrontRightMph","SpeedRearLeftMph","SpeedFrontLeftMph","SpeedRearRightMph","FrontLeft","FrontRight","RearLeft","RearRight","Temperature","CoolantTemp","MotorPumpStatus1","MotorPumpStatus2","APPS1","APPS2","LV Current","LV Voltage","HeartBit","Pack Current","Pack Inst Voltag","Pack SOC","Average Temperat","Pack DCL","High Temperature","Low Temperature","High Cell Voltag","Low Cell Voltage","MultiPurpose  01","Maximum Pack Vol","Minimum Cell Vol","GPS Speed","GPS Nsat","GPS LatAcc","GPS LonAcc","GPS Slope","GPS Heading","GPS Gyro","GPS Altitude","GPS PosAccuracy","GPS Radius","GPS Latitude","GPS Longitude"
"0.000","3.6134","3","0.0000","0.0000","-0.0876","-112.0330","0.0000","323.3790","200.0000","8.1400","10000.0000","40.84874490","-80.34581359","38.7500","11.3360","0.0000","7.8711","-2.9004","6.9297","-2.6738","-0.0079","0.0236","-0.9976","0.4609","-0.0592","-0.3181","113.8750","0.0000","29.1000","27.7000","28.6000","0.0000","26.7000","0.0000","0.0000","0.8000","0.7000","0.6000","0.1000","-0.5000","0.0000","0.6000","-0.2000","1.0000","-18.5420","0.0340","1.0000","0.0000","0.0000","0.0000","0.0000","0.0000","0.0000","0.0000","0.0000","0.0000","0.6000","0.0000","0.0000","1.0000","0.0000","0.0000","0.0000","0.0000","0.0000","0.0000","0.0000","0.0000","0.0000","0.0000","5.0814","3.0337","0.0000","0.0000","0.0000","0.0000","0.0000","0.0000","0.0000","0.0000","0.0000","0.0000","0.0000","0.0000","36.5625","0.0000","0.0000","0.0000","-3.0200","-3.3100","1.5600","16580.0000","0.0000","0.0000","345699.9688","61.5000","25.0000","150.0000","38.0000","12.0000","3.6000","20.0000","1.0000","0.0000","0.0000","8.0829","3.0000","0.0000","0.0000","-0.0876","-112.0330","0.0000","323.3790","6548100.0000","10000.0000","40.8487","-80.3458"
"0.050","3.6134","3","0.0000","0.0000","-0.0876","-112.0330","0.0000","323.3790","200.0000","8.1400","10000.0000","40.84874490","-80.34581359","38.7500","11.3360","0.0000","7.8711","-2.9004","6.9297","-2.6738","-0.0081","0.0241","-0.9968","0.4609","-0.0592","-0.3181","113.8750","0.0000","29.1000","27.7000","28.6000","0.0000","26.7000","0.0000","0.0000","0.8000","0.7000","0.6000","0.1000","-0.5000","0.0000","0.6000","-0.2000","1.0000","-18.5420","0.0340","1.0000","0.0000","0.0000","0.0000","0.0000","0.0000","0.0000","0.0000","0.0000","0.0000","0.6000","0.0000","0.0000","1.0000","0.0000","0.0000","0.0000","0.0000","0.0000","0.0000","0.0000","0.0000","0.0000","0.0000","5.0814","3.0337","0.0000","0.0000","0.0000","0.0000","0.0000","0.0000","0.0000","0.0000","0.0000","0.0000","0.0000","0.0000","36.5625","0.0000","0.0000","0.0000","-3.0200","-3.3100","1.5600","16580.0000","0.0000","0.0000","345699.9688","61.5000","25.0000","150.0000","38.0000","12.0000","3.6000","20.0000","1.0000","0.0000","0.0000","8.0829","3.0000","0.0000","0.0000","-0.0876","-112.0330","0.0000","323.3790","6548100.0000","10000.0000","40.8487","-80.3458"
"0.100","3.6134","3","0.0000","0.0000","-0.0876","-112.0330","0.0000","323.3790","200.0000","8.1400","10000.0000","40.84874490","-80.34581359","38.7500","11.3360","0.0000","7.8711","-2.9004","6.9297","-2.6738","-0.0089","0.0252","-0.9966","0.4609","-0.0592","-0.3181","113.8750","0.0000","29.1000","27.7000","28.6000","0.0000","26.7000","0.0000","0.0000","0.8000","0.7000","0.6000","0.1000","-0.5000","0.0000","0.6000","-0.2000","1.0000","-18.5420","0.0340","1.0000","0.0000","0.0000","0.0000","0.0000","0.0000","0.0000","0.0000","0.0000","0.0000","0.6000","0.0000","0.0000","1.0000","0.0000","0.0000","0.0000","0.0000","0.0000","0.0000","0.0000","0.0000","0.0000","0.0000","5.0814","3.0337","0.0000","0.0000","0.0000","0.0000","0.0000","0.0000","0.0000","0.0000","0.0000","0.0000","0.0000","0.0000","36.5625","0.0000","0.0000","0.0000","-3.0200","-3.3100","1.5600","16580.0000","0.0000","0.0000","345699.9688","61.5000","25.0000","150.0000","38.0000","12.0000","3.6000","20.0000","1.0000","0.0000","0.0000","8.0829","3.0000","0.0000","0.0000","-0.0876","-112.0330","0.0000","323.3790","6548100.0000","10000.0000","40.8487","-80.3458"
"0.150","3.6134","3","0.0000","0.0000","-0.0876","-112.0330","0.0000","323.3790","200.0000","8.1400","10000.0000","40.84874490","-80.34581359","38.7500","11.3360","0.0000","7.8711","-2.9004","6.9297","-2.6738","-0.0088","0.0234","-0.9966","0.4609","-0.0592","-0.3181","113.8750","0.0000","29.1000","27.7000","28.6000","0.0000","26.7000","0.0000","0.0000","0.8000","0.7000","0.6000","0.1000","-0.5000","0.0000","0.6000","-0.2000","1.0000","-18.5420","0.0340","1.0000","0.0000","0.0000","0.0000","0.0000","0.0000","0.0000","0.0000","0.0000","0.0000","0.6000","0.0000","0.0000","1.0000","0.0000","0.0000","0.0000","0.0000","0.0000","0.0000","0.0000","0.0000","0.0000","0.0000","5.0814","3.0337","0.0000","0.0000","0.0000","0.0000","0.0000","0.0000","0.0000","0.0000","0.0000","0.0000","0.0000","0.0000","36.5625","0.0000","0.0000","0.0000","-3.0200","-3.3100","1.5600","16580.0000","0.0000","0.0000","345699.9688","61.5000","25.0000","150.0000","38.0000","12.0000","3.6000","20.0000","1.0000","0.0000","0.0000","8.0829","3.0000","0.0000","0.0000","-0.0876","-112.0330","0.0000","323.3790","6548100.0000","10000.0000","40.8487","-80.3458"
"0.200","3.6134","3","0.0000","0.0000","-0.0876","-112.0330","0.0000","323.3790","200.0000","8.1400","10000.0000","40.84874490","-80.34581359","38.7500","11.3360","0.0000","7.8711","-2.9004","6.9297","-2.6738","-0.0080","0.0233","-0.9966","0.4609","-0.0592","-0.3181","113.8750","0.0000","29.1000","27.7000","28.6000","0.0000","26.7000","0.0000","0.0000","0.8000","0.7000","0.6000","0.1000","-0.5000","0.0000","0.6000","-0.2000","1.0000","-18.5420","0.0340","1.0000","0.0000","0.0000","0.0000","0.0000","0.0000","0.0000","0.0000","0.0000","0.0000","0.6000","0.0000","0.0000","1.0000","0.0000","0.0000","0.0000","0.0000","0.0000","0.0000","0.0000","0.0000","0.0000","0.0000","5.0814","3.0337","0.0000","0.0000","0.0000","0.0000","0.0000","0.0000","0.0000","0.0000","0.0000","0.0000","0.0000","0.0000","36.5625","0.0000","0.0000","0.0000","-3.0200","-3.3100","1.5600","16580.0000","0.0000","0.0000","345699.9688","61.5000","25.0000","150.0000","38.0000","12.0000","3.6000","20.0000","1.0000","0.0000","0.0000","8.0829","3.0000","0.0000","0.0000","-0.0876","-112.0330","0.0000","323.3790","6548100.0000","10000.0000","40.8487","-80.3458"
"0.250","3.6134","3","0.0000","0.0000","-0.0876","-112.0330","0.0000","323.3790","200.0000","8.1400","10000.0000","40.84874490","-80.34581359","38.7500","11.3360","0.0000","7.8711","-2.9004","6.9297","-2.6738","-0.0085","0.0251","-0.9961","0.4796","-0.0661","-0.2997","113.8750","0.0000","29.1000","27.7000","28.6000","0.0000","26.7000","0.0000","0.0000","0.7529","0.7353","0.5882","0.1000","-0.5000","0.0000","0.6000","-0.2000","1.0000","-18.5420","0.0340","1.0000","0.0000","0.0000","0.0000","0.0000","0.0000","0.0000","0.0000","0.0000","0.0000","0.6000","0.0000","0.0000","1.0000","0.0000","0.0000","0.0000","0.0000","0.0000","0.0000","0.0000","0.0000","0.0000","0.0000","5.0814","3.0337","0.0000","0.0000","0.0000","0.0000","0.0000","0.0000","0.0000","0.0000","0.0000","0.0000","0.0000","0.0000","36.5625","0.0000","0.0000","0.0000","-3.0200","-3.3100","1.5600","16580.0000","0.0000","0.0000","345699.9688","61.5000","25.0000","150.0000","38.0000","12.0000","3.6000","20.0000","1.0000","0.0000","0.0000","8.0829","3.0000","0.0000","0.0000","-0.0876","-112.0330","0.0000","323.3790","6548100.0000","10000.0000","40.8487","-80.3458"
"0.300","3.6134","3","0.0000","0.0000","-0.0876","-112.0330","0.0000","323.3790","200.0000","8.1400","10000.0000","40.84874490","-80.34581359","38.7500","11.3360","0.0000","7.8711","-2.9004","6.9297","-2.6738","-0.0090","0.0238","-0.9966","0.4878","-0.0724","-0.3074","113.8750","0.0000","29.1000","27.7000","28.6000","0.0000","26.7000","0.0000","0.0000","0.5569","0.8824","0.5392","0.1000","-0.5000","0.0000","0.6000","-0.2000","1.0000","-18.5420","0.0340","1.0000","0.0000","0.0000","0.0000","0.0000","0.0000","0.0000","0.0000","-0.0495","0.0000","0.6000","0.0000","0.0000","1.0000","0.0000","0.0000","0.0000","0.0000","0.0000","0.0000","0.0000","0.0000","0.0000","0.0000","5.0814","3.0361","0.0000","0.0000","0.0000","0.0000","0.0000","0.0000","0.0000","0.0000","0.0000","0.0000","0.0000","0.0000","36.5625","0.0000","0.0000","0.0000","-3.0200","-3.3100","1.5733","16581.9043","0.0000","0.0000","345699.9688","61.5000","25.0000","150.0000","38.0000","12.0000","3.6095","19.9905","1.0000","0.0000","0.0000","8.0829","3.0000","0.0000","0.0000","-0.0876","-112.0330","0.0000","323.3790","6548100.0000","10000.0000","40.8487","-80.3458"
"0.350","3.6134","3","0.0000","0.0000","-0.0876","-112.0330","0.0000","323.3790","200.0000","8.1400","10000.0000","40.84874490","-80.34581359","38.7500","11.3360","0.0000","7.8711","-2.9004","6.9297","-2.6738","-0.0092","0.0232","-0.9966","0.4701","-0.0995","-0.3247","113.8750","0.0000","29.1000","27.7000","28.6000","0.0000","26.7000","0.0980","0.0000","0.4000","0.9608","0.5000","0.0706","-0.4804","0.0000","0.6196","-0.2000","1.0000","-18.5420","0.0340","1.0000","0.0000","0.0000","0.0000","0.0000","0.0000","0.0000","0.0000","-0.1032","0.0323","0.6032","0.0000","0.0000","1.0000","0.0000","0.0000","0.0000","0.0000","0.0000","0.0000","0.0000","0.0000","0.0000","0.0000","5.0814","3.0602","0.0000","0.0000","0.0000","0.0000","0.0000","0.0000","0.0000","0.0000","0.0000","0.0000","0.0000","0.0000","36.5625","0.0000","0.0000","0.0000","-3.0176","-3.3124","1.6067","16586.6660","0.0000","0.0000","345699.9688","61.5000","25.0000","150.0000","38.0000","12.0000","3.6571","19.9429","1.0000","0.0000","0.0000","8.0829","3.0000","0.0000","0.0000","-0.0876","-112.0330","0.0000","323.3790","6548100.0000","10000.0000","40.8487","-80.3458"
"0.400","3.6134","3","0.0000","0.0000","-0.0876","-112.0330","0.0000","323.3790","200.0000","8.1400","10000.0000","40.84874490","-80.34581359","38.7500","11.3360","0.0000","7.9094","-2.8891","6.8969","-2.6500","-0.0092","0.0248","-0.9966","0.4534","-0.0861","-0.3369","113.8750","0.0000","29.1000","27.7000","28.6000","0.0000","26.7000","0.5882","0.0000","0.4000","0.7647","0.5000","-0.0765","-0.3824","0.0000","0.7176","-0.2000","1.0000","-18.5420","0.0340","1.0000","0.0000","0.0000","0.0000","0.0000","0.0000","0.0000","0.0000","-0.1570","0.5699","0.6570","0.0000","0.0000","1.0000","0.0000","0.0000","0.0000","0.0000","0.0000","0.0000","0.0000","0.0000","0.0000","0.0000","5.0870","3.0820","0.0000","0.0000","0.0000","0.0000","0.0000","0.0000","0.0000","0.0000","0.0000","0.0000","0.0000","0.0000","36.5625","0.0000","0.0000","0.0000","-2.9974","-3.3326","1.6414","16592.8574","0.0000","0.0000","345699.9688","61.5000","25.0000","150.0000","38.0000","12.0000","3.6903","19.9049","1.0000","0.0000","0.0000","8.0829","3.0000","0.0000","0.0000","-0.0876","-112.0330","0.0000","323.3790","6548100.0000","10000.0000","40.8487","-80.3458"
"0.450","3.6134","3","0.0000","0.0000","-0.0876","-112.0330","0.0000","323.3790","200.0000","8.1400","10000.0000","40.84874490","-80.34581359","38.7500","11.3360","0.0000","7.8844","-2.9020","6.9844","-2.6891","-0.0091","0.0245","-0.9968","0.4540","-0.1016","-0.3274","113.8750","0.0000","29.1000","27.7000","28.6000","0.0000","26.7000","0.9216","0.0000","0.4157","0.5843","0.5000","-0.1843","-0.3157","0.0000","0.7922","-0.2088","1.0176","-18.5420","0.0340","1.0000","0.0000","0.0000","0.0000","-0.0088","0.0000","0.0000","0.0000","-0.1785","0.8925","0.7000","0.0000","0.0000","1.0000","0.0000","0.0000","0.0000","0.0000","0.0000","0.0000","0.0000","0.0000","0.0000","0.0000","5.1427","3.0820","0.0000","0.0000","0.0000","0.0000","0.0000","0.0000","0.0000","0.0000","0.0000","0.0000","0.0000","0.0000","36.5625","0.0000","0.0000","0.0000","-2.9845","-3.3474","1.6795","16602.3809","0.0000","0.0000","345699.9688","61.5000","25.0000","150.0000","38.0000","12.0000","3.5932","19.9534","1.0000","0.0000","0.0000","8.0829","3.0000","0.0000","0.0000","-0.0876","-112.0330","0.0000","323.3790","6548100.0000","10000.0000","40.8487","-80.3458"
"0.500","3.6134","3","0.0000","0.0000","-0.0876","-112.0330","0.0000","323.3790","200.0000","8.1400","10000.0000","40.84874490","-80.34581359","38.7500","11.3360","0.0000","7.8812","-2.8980","6.9242","-2.6777","-0.0098","0.0234","-0.9971","0.4575","-0.1005","-0.3252","113.8750","0.0000","29.1000","27.7000","28.6000","0.0000","26.7000","0.4314","0.0000","0.5137","0.4863","0.5000","-0.0863","-0.4137","0.0000","0.7431","-0.2578","1.1157","-18.5420","0.0340","1.0000","0.0000","0.0000","0.0000","-0.0578","0.0000","0.0000","0.0000","-0.0710","0.3548","0.7000","0.0000","0.0000","1.0000","0.0000","0.0000","0.0000","0.0000","0.0000","0.0000","0.0000","0.0000","0.0000","0.0000","5.1887","3.0793","0.0000","0.0000","0.0000","0.0000","0.0000","0.0000","0.0000","0.0000","0.0000","0.0000","0.0000","0.0000","36.5625","0.0000","0.0000","0.0000","-3.0166","-3.3291","1.7167","16607.1426","0.0000","0.0000","345699.9688","61.5000","25.0000","150.0000","38.0000","12.0000","3.5000","19.9981","1.0000","0.0000","0.0000","8.0829","3.0000","0.0000","0.0000","-0.0876","-112.0330","0.0000","323.3790","6548100.0000","10000.0000","40.8487","-80.3458"
"0.550","3.6134","3","0.0000","0.0000","-0.0876","-112.0330","0.0000","323.3790","200.0000","8.1400","10000.0000","40.84874490","-80.34581359","38.7500","11.3360","0.0000","7.9164","-2.9016","6.9531","-2.6309","-0.0102","0.0245","-0.9968","0.4639","-0.0976","-0.3213","113.8750","0.0000","29.1000","27.7000","28.6000","0.0000","26.7000","0.0000","0.0000","0.6059","0.4353","0.5000","0.0000","-0.5294","0.0000","0.6941","-0.3068","1.2068","-18.5420","0.0340","1.0000","0.0000","0.0000","0.0000","-0.1069","0.0000","0.0000","0.0000","0.0000","0.0000","0.6817","0.0000","0.0000","1.0000","0.0000","0.0000","0.0000","0.0000","0.0000","0.0000","0.0000","0.0000","0.0000","0.0000","5.1634","3.0572","0.0000","0.0000","0.0000","0.0000","0.0000","0.0000","0.0000","0.0000","0.0000","0.0000","0.0000","0.0000","36.5625","0.0000","0.0000","0.0000","-3.0487","-3.3107","1.7500","16592.8574","0.0000","0.0000","345699.9688","61.5000","25.0000","150.0000","38.0000","12.0000","3.5000","19.9500","1.0000","0.0000","0.0000","8.0829","3.0000","0.0000","0.0000","-0.0876","-112.0330","0.0000","323.3790","6548100.0000","10000.0000","40.8487","-80.3458"
"0.600","3.6134","3","0.0000","0.0000","-0.0876","-112.0330","0.0000","323.3790","200.0000","8.1400","10000.0000","40.84874490","-80.34581359","38.7500","11.3360","0.0000","7.8836","-2.8953","6.9469","-2.6609","-0.0095","0.0247","-0.9961","0.4900","-0.0955","-0.3245","113.8750","0.0000","29.1000","27.7000","28.6000","0.0000","26.7000","0.0000","0.0000","0.6549","0.7294","0.5000","0.0000","-0.7745","0.0000","0.6451","-0.3553","1.2553","-18.5420","0.0340","1.0000","0.0000","0.0000","0.0000","-0.1559","0.0000","0.0000","0.0000","0.0000","0.0000","0.6280","0.0000","0.0000","1.0000","0.0000","0.0000","0.0000","0.0000","0.0000","0.0000","0.0000","0.0000","0.0000","0.0000","5.1381","3.0350","0.0000","0.0000","0.0000","0.0000","0.0000","0.0000","0.0000","0.0000","0.0000","0.0000","0.0000","0.0000","36.5625","0.0000","0.0000","0.0000","-3.0164","-3.3100","1.7729","16580.0000","0.0000","0.0000","345699.9688","61.5000","25.0000","150.0000","38.0000","12.0000","3.5000","19.9019","1.0000","0.0000","0.0000","8.0829","3.0000","0.0000","0.0000","-0.0876","-112.0330","0.0000","323.3790","6548100.0000","10000.0000","40.8487","-80.3458"
"0.650","3.6134","3","0.0000","0.0000","-0.0876","-112.0330","0.0000","323.3790","200.0000","8.1400","10000.0000","40.84874490","-80.34581359","38.7500","11.3360","0.0000","7.8859","-2.8969","6.9180","-2.6590","-0.0083","0.0241","-0.9968","0.5261","-0.1071","-0.3110","113.8750","0.0000","29.1000","27.7000","28.6000","0.0000","26.7000","0.0000","0.0000","0.7118","0.9882","0.5118","-0.0078","-0.9725","0.0000","0.6039","-0.4039","1.3235","-18.5420","0.0340","1.0000","0.0000","0.0000","0.0000","-0.2000","0.0000","0.0000","0.0000","-0.0258","0.0000","0.6000","0.0000","0.0000","1.0000","0.0000","0.0000","0.0000","0.0000","0.0000","0.0000","0.0000","0.0000","0.0000","0.0000","5.1366","3.0337","0.0000","0.0000","0.0000","0.0000","0.0000","0.0000","0.0000","0.0000","0.0000","0.0000","0.0000","0.0000","36.5625","0.0000","0.0000","0.0000","-2.9814","-3.3100","1.7014","16580.0000","0.0000","0.0000","345699.9688","61.5000","25.0000","150.0000","38.0000","12.0000","3.5923","19.9000","1.0000","0.0000","0.0000","8.0829","3.0000","0.0000","0.0000","-0.0876","-112.0330","0.0000","323.3790","6548100.0000","10000.0000","40.8487","-80.3458"
"0.700","3.6134","3","0.0000","0.0000","-0.0876","-112.0330","0.0000","323.3790","200.0000","8.1400","10000.0000","40.84874490","-80.34581359","38.7500","11.3360","0.0000","7.9125","-2.8906","6.9367","-2.6309","-0.0082","0.0241","-0.9966","0.5630","-0.1483","-0.3042","113.8750","0.0000","29.1000","27.7000","28.6000","0.0000","26.7000","0.0000","0.0000","0.8588","0.8412","0.6588","-0.1059","-0.6294","0.0000","0.6529","-0.4529","1.6176","-18.5420","0.0340","1.0000","0.0000","0.0000","0.0000","-0.2000","0.0000","0.0000","0.0000","-0.0796","0.0000","0.6000","0.0000","0.0000","1.0000","0.0000","0.0000","0.0000","0.0000","0.0000","0.0000","0.0000","0.0000","0.0000","0.0000","5.1366","3.0337","0.0000","0.0000","0.0000","0.0000","0.0000","0.0000","0.0000","0.0000","0.0000","0.0000","0.0000","0.0000","36.5625","0.0000","0.0000","0.0000","-2.9800","-3.3100","1.6300","16580.0000","0.0000","0.0000","345699.9688","61.5000","25.0000","150.0000","38.0000","12.0000","3.6885","19.9000","1.0000","0.0000","0.0000","8.0829","3.0000","0.0000","0.0000","-0.0876","-112.0330","0.0000","323.3790","6548100.0000","10000.0000","40.8487","-80.3458"
"0.750","3.6134","3","0.0000","0.0000","-0.0876","-112.0330","0.0000","323.3790","200.0000","8.1400","10000.0000","40.84874490","-80.34581359","38.7448","11.3347","0.0000","7.8812","-2.9020","6.9469","-2.6625","-0.0140","0.0242","-0.9956","0.5645","-0.1476","-0.3425","113.8750","0.0000","29.1000","27.7000","28.6000","0.0000","26.7000","0.0000","0.0000","1.0000","0.6980","0.8000","-0.1902","-0.3137","0.0000","0.6980","-0.5000","1.9000","-18.5420","0.0340","1.0000","0.0000","0.0000","0.0000","-0.2000","0.0000","0.0000","0.0000","-0.1667","0.0000","0.7000","0.0000","0.0000","1.0000","0.0000","0.0000","0.0000","0.0000","0.0000","0.0000","0.0000","0.0000","0.0000","0.0000","5.1366","3.0116","0.0000","0.0000","0.0000","0.0000","0.0000","0.0000","0.0000","0.0000","0.0000","0.0000","0.0000","0.0000","36.5625","0.0000","0.0000","0.0000","-2.9800","-3.3100","1.6300","16589.3457","0.0000","0.0000","345699.9688","61.5000","25.0000","150.0000","38.0000","12.0000","3.6162","19.9000","1.0000","0.0000","0.0000","8.0829","3.0000","0.0000","0.0000","-0.0876","-112.0330","0.0000","323.3790","6548100.0000","10000.0000","40.8487","-80.3458"
"0.800","3.6134","3","0.0000","0.0000","-0.0876","-112.0330","0.0000","323.3790","200.0000","8.1400","10000.0000","40.84874490","-80.34581359","38.7318","11.3313","0.0000","7.8930","-2.8902","6.8875","-2.6590","-0.0156","0.0221","-0.9956","0.5439","-0.1137","-0.3511","113.8750","0.0000","29.1000","27.7000","28.6000","0.0000","26.7000","0.0000","0.0000","1.0000","0.6490","0.8000","0.0549","-0.6569","0.0000","0.6490","-0.5000","1.9000","-18.5420","0.0340","1.0000","0.0000","0.0000","0.0000","-0.2000","0.0000","0.0000","0.0000","-0.2742","0.0000","0.8613","0.0000","0.0000","1.0000","0.0000","0.0000","0.0000","0.0000","0.0000","0.0000","0.0000","0.0000","0.0000","0.0000","5.1366","2.9886","0.0000","0.0000","0.0000","0.0000","0.0000","0.0000","0.0000","0.0000","0.0000","0.0000","0.0000","0.0000","36.5625","0.0000","0.0000","0.0000","-2.9800","-3.3100","1.6300","16598.6914","0.0000","0.0000","345699.9688","61.5000","25.0000","150.0000","38.0000","12.0000","3.5210","19.9000","1.0000","0.0000","0.0000","8.0829","3.0000","0.0000","0.0000","-0.0876","-112.0330","0.0000","323.3790","6548100.0000","10000.0000","40.8487","-80.3458"
"0.850","3.6134","3","0.0000","0.0000","-0.0876","-112.0330","0.0000","323.3790","200.0000","8.1400","10000.0000","40.84874490","-80.34581359","38.7188","11.3280","0.0000","7.8977","-2.8973","6.9328","-2.6605","-0.0102","0.0214","-0.9973","0.4888","-0.0994","-0.3356","113.8750","0.0000","29.1000","27.7000","28.6000","0.0000","26.7000","0.0000","0.0000","1.0000","0.6000","0.8000","0.3000","-1.0000","0.0000","0.6000","-0.5000","1.9000","-18.5420","0.0340","1.0000","0.0000","0.0000","0.0000","-0.2000","0.0000","0.0000","0.0000","-0.2183","0.0000","0.8183","0.0000","0.0000","1.0000","0.0000","0.0000","0.0000","0.0000","0.0000","0.0000","0.0000","0.0000","0.0000","0.0000","5.1522","2.9785","0.0000","0.0000","0.0000","0.0000","0.0000","0.0000","0.0000","0.0000","0.0000","0.0000","0.0000","0.0000","36.5625","0.0000","0.0000","0.0000","-2.9800","-3.3100","1.6300","16595.9043","0.0000","0.0000","345699.9688","61.5000","25.0000","150.0000","38.0000","12.0000","3.5757","19.9379","1.0000","0.0000","0.0000","8.0829","3.0000","0.0000","0.0000","-0.0876","-112.0330","0.0000","323.3790","6548100.0000","10000.0000","40.8487","-80.3458"
"0.900","3.6134","3","0.0000","0.0000","-0.0876","-112.0330","0.0000","323.3790","200.0000","8.1400","10000.0000","40.84874490","-80.34581359","38.7318","11.3280","0.0000","7.9000","-2.8777","6.9359","-2.6715","-0.0065","0.0280","-0.9961","0.4741","-0.0769","-0.3430","113.8750","0.0000","29.1000","27.7000","28.6000","0.0000","26.7000","0.0000","0.0000","1.2941","0.9431","1.1431","0.0549","-0.8529","0.0000","0.6000","-0.5000","2.4882","-18.5420","0.0340","1.0000","0.0000","0.0000","0.0000","-0.2000","0.0000","0.0000","0.0000","-0.1108","0.0000","0.7108","0.0000","0.0000","1.0000","0.0000","0.0000","0.0000","0.0000","0.0000","0.0000","0.0000","0.0000","0.0000","0.0000","5.1800","2.9785","0.0000","0.0000","0.0000","0.0000","0.0000","0.0000","0.0000","0.0000","0.0000","0.0000","0.0000","0.0000","36.5625","0.0000","0.0000","0.0000","-2.9960","-3.3100","1.6300","16591.1426","0.0000","0.0000","345699.9688","61.5000","25.0000","150.0000","38.0000","12.0000","3.6728","19.9864","1.0000","0.0000","0.0000","8.0829","3.0000","0.0000","0.0000","-0.0876","-112.0330","0.0000","323.3790","6548100.0000","10000.0000","40.8487","-80.3458"
"0.950","3.6134","3","0.0000","0.0000","-0.0876","-112.0330","0.0000","323.3790","200.0000","8.1400","10000.0000","40.84874490","-80.34581359","38.7448","11.3280","0.0000","7.8883","-2.9051","6.9156","-2.6570","-0.0051","0.0231","-0.9976","0.4934","-0.0772","-0.3260","113.8750","0.0000","29.1000","27.7000","28.6000","0.0000","26.7000","0.0000","0.0000","1.5882","1.2863","1.4863","-0.1902","-0.7059","0.0000","0.6000","-0.5000","3.0765","-18.5420","0.0340","1.0000","0.0000","0.0000","0.0000","-0.2000","0.0000","0.0000","0.0000","-0.0032","0.0000","0.7484","0.0000","0.0000","1.0000","0.0000","0.0000","0.0000","0.0000","0.0000","0.0000","0.0000","0.0000","0.0000","0.0000","5.1917","2.9947","0.0000","0.0000","0.0000","0.0000","0.0000","0.0000","0.0000","0.0000","0.0000","0.0000","0.0000","0.0000","36.5625","0.0000","0.0000","0.0000","-3.0160","-3.3100","1.6587","16593.5840","0.0309","0.0000","345699.9688","61.5000","25.0000","150.0000","38.0000","12.0000","3.6657","19.9657","1.0000","0.0000","0.0000","8.0829","3.0000","0.0000","0.0000","-0.0876","-112.0330","0.0000","323.3790","6548100.0000","10000.0000","40.8487","-80.3458"
"1.000","3.6134","3","0.0000","0.0000","-0.0876","-112.0330","0.0000","323.3790","200.0000","8.1400","10000.0000","40.84874490","-80.34581359","38.7422","11.3280","0.0000","7.9117","-2.9141","6.9328","-2.6613","-0.0071","0.0224","-0.9976","0.4729","-0.1108","-0.2776","113.8750","0.0000","29.1000","27.7000","28.6000","0.0000","26.7000","0.4706","0.0000","0.9412","0.6882","0.7471","-0.1059","-0.3706","0.0000","0.6471","-0.3574","1.6267","-18.5420","0.0340","1.0000","0.0000","0.0000","0.0000","-0.1520","0.0000","0.0000","0.0000","0.0957","0.0000","0.8000","0.0000","0.0000","1.0000","0.0000","0.0000","0.0000","0.0000","0.0000","0.0000","0.0000","0.0000","0.0000","0.0000","5.1917","3.0225","0.0000","0.0000","0.0000","0.0000","0.0000","0.0000","0.0000","0.0000","0.0000","0.0000","0.0000","0.0000","36.5625","0.0000","0.0000","0.0000","-3.0200","-3.3100","1.6964","16598.3027","0.0808","0.0000","345699.9688","61.5000","25.0000","150.0000","38.0000","12.0000","3.6181","19.9181","1.0000","0.0000","0.0000","8.0829","3.0000","0.0000","0.0000","-0.0876","-112.0330","0.0000","323.3790","6548100.0000","10000.0000","40.8487","-80.3458"
"1.050","3.6134","3","0.0000","0.0000","-0.0876","-112.0330","0.0000","323.3790","200.0000","8.1400","10000.0000","40.84874490","-80.34581359","38.7292","11.3280","0.0000","7.8930","-2.8883","6.9031","-2.6684","-0.0102","0.0254","-0.9971","0.4767","-0.1115","-0.2590","113.8750","0.0000","29.1000","27.7000","28.6000","0.0000","26.7000","0.9608","0.0000","0.2549","0.0510","-0.0373","-0.0078","-0.0275","0.0000","0.6961","-0.2089","0.0921","-18.5420","0.0340","1.0000","0.0000","0.0000","0.0000","-0.1029","0.0000","0.0000","0.0000","-0.0118","0.0000","0.8000","0.0000","0.0000","1.0000","0.0000","0.0000","0.0000","0.0000","0.0000","0.0000","0.0000","0.0000","0.0000","0.0000","5.1750","3.0170","0.0000","0.0000","0.0000","0.0000","0.0000","0.0000","0.0000","0.0000","0.0000","0.0000","0.0000","0.0000","36.5625","0.0000","0.0000","0.0000","-3.0200","-3.3100","1.7100","16600.0000","0.1307","0.0000","345699.9688","61.5000","25.0000","150.0000","38.0000","12.0000","3.6000","19.9000","1.0000","0.0000","0.0000","8.0829","3.0000","0.0000","0.0000","-0.0876","-112.0330","0.0000","323.3790","6548100.0000","10000.0000","40.8487","-80.3458"
"1.100","3.6134","3","0.0000","0.0000","-0.0876","-112.0330","0.0000","323.3790","200.0000","8.1400","10000.0000","40.84874490","-80.34581359","38.7188","11.3280","0.0000","7.8930","-2.8945","6.9227","-2.6629","-0.0114","0.0236","-0.9966","0.5020","-0.0955","-0.3262","113.8750","0.0000","29.1000","27.7000","28.6000","0.0000","26.7000","0.5490","0.0000","0.1098","0.2255","0.1255","-0.0902","0.0000","0.0000","0.6098","-0.0631","0.2282","-18.5420","0.0340","1.0000","0.0000","0.0000","0.0000","-0.0539","0.0000","0.0000","0.0000","-0.1000","0.0000","0.7903","0.0000","0.0000","1.0000","0.0000","0.0000","0.0000","0.0000","0.0000","0.0000","0.0000","0.0000","0.0000","0.0000","5.1472","2.9891","0.0000","0.0000","0.0000","0.0000","0.0000","0.0000","0.0000","0.0000","0.0000","0.0000","0.0000","0.0000","36.5625","0.0000","0.0000","0.0000","-3.0032","-3.2974","1.7100","16600.0000","0.1806","0.0000","345699.9688","61.5000","25.0000","150.0000","38.0000","12.0000","3.6000","19.9000","1.0000","0.0000","0.0000","8.0829","3.0000","0.0000","0.0000","-0.0876","-112.0330","0.0000","323.3790","6548100.0000","10000.0000","40.8487","-80.3458"
"1.150","3.6134","3","0.0000","0.0000","-0.0876","-112.0330","0.0000","323.3790","200.0000","8.1400","10000.0000","40.84874490","-80.34581359","38.7188","11.3280","0.0000","7.8758","-2.8957","6.9187","-2.6688","-0.0107","0.0227","-0.9966","0.4784","-0.0981","-0.3369","113.8750","0.0000","29.1000","27.6999","28.6000","0.0000","26.7000","0.0588","0.0000","0.0118","0.4706","0.3706","-0.1882","0.0000","0.0000","0.5118","0.0825","0.4709","-18.5420","0.0340","1.0000","0.0000","0.0000","0.0000","-0.0049","0.0000","0.0000","0.0000","-0.1000","0.0000","0.7366","0.0000","0.0000","1.0000","0.0000","0.0000","0.0000","0.0000","0.0000","0.0000","0.0000","0.0000","0.0000","0.0000","5.1539","2.9958","0.0000","0.0000","0.0000","0.0000","0.0000","0.0000","0.0000","0.0000","0.0000","0.0000","0.0000","0.0000","36.5625","0.0000","0.0000","0.0000","-2.9832","-3.2824","1.6729","16587.6191","0.2305","0.0000","345699.9688","61.5000","25.0000","150.0000","38.0000","12.0000","3.6000","19.9262","1.0000","0.0000","0.0000","8.0829","3.0000","0.0000","0.0000","-0.0876","-112.0330","0.0000","323.3790","6548100.0000","10000.0000","40.8487","-80.3458"
"1.200","3.6134","3","0.0000","0.0000","-0.0876","-112.0330","0.0000","323.3790","200.0000","8.1400","10000.0000","40.84874490","-80.34581359","38.7188","11.3280","0.0000","7.8961","-2.9043","6.9219","-2.6504","-0.0094","0.0255","-0.9961","0.4556","-0.0887","-0.3247","113.8750","0.0000","29.1000","27.6949","28.6000","0.0000","26.7000","0.0000","0.0000","0.2157","0.8451","0.6588","-0.2863","-0.3020","0.0000","0.5431","0.0569","0.9745","-18.5420","0.0340","1.0000","0.0000","0.0000","0.0000","0.0000","0.0000","0.0000","0.0000","-0.1000","0.0000","0.7172","0.0000","0.0000","1.0000","0.0000","0.0000","0.0000","0.0000","0.0000","0.0000","0.0000","0.0000","0.0000","0.0000","5.1817","3.0237","0.0000","0.0000","0.0000","0.0000","0.0000","0.0000","0.0000","0.0000","0.0000","0.0000","0.0000","0.0000","36.5625","0.0000","0.0000","0.0000","-2.9954","-3.2916","1.6014","16563.8086","0.2804","0.0000","345699.9688","61.5000","25.0000","150.0000","38.0000","12.0000","3.6000","19.9748","1.0000","0.0000","0.0000","8.0829","3.0000","0.0000","0.0000","-0.0876","-112.0330","0.0000","323.3790","6548100.0000","10000.0000","40.8487","-80.3458"
"1.250","3.6134","3","0.0000","0.0000","-0.0876","-112.0330","0.0000","323.3790","200.0000","8.1400","10000.0000","40.84874490","-80.34581359","38.7188","11.3280","0.0000","7.8984","-2.8949","6.9375","-2.6543","-0.0097","0.0244","-0.9966","0.4586","-0.0833","-0.3329","113.8750","0.0000","29.1000","27.6899","28.6000","0.0000","26.7000","0.0000","0.0000","0.4608","1.2373","0.9529","-0.3843","-0.6451","0.0000","0.5922","0.0078","1.5137","-18.5420","0.0340","1.0000","0.0000","0.0000","0.0000","0.0000","0.0000","0.0000","0.0000","-0.1000","0.0000","0.7710","0.0000","0.0000","1.0000","0.0000","0.0000","0.0000","0.0000","0.0000","0.0000","0.0000","0.0000","0.0000","0.0000","5.1917","3.0337","0.0000","0.0000","0.0000","0.0000","0.0000","0.0000","0.0000","0.0000","0.0000","0.0000","0.0000","0.0000","36.5625","0.0000","0.0000","0.0000","-3.0138","-3.3053","1.5897","16559.9062","0.3303","0.0000","345699.9688","61.5000","25.0000","150.0000","38.0000","12.0000","3.5769","19.9769","1.0000","0.0000","0.0000","8.0829","3.0000","0.0000","0.0000","-0.0876","-112.0330","0.0000","323.3790","6548100.0000","10000.0000","40.8487","-80.3458"
"1.300","3.6134","3","0.0000","0.0000","-0.0876","-112.0330","0.0000","323.3790","200.0000","8.1400","10000.0000","40.84874490","-80.34581359","38.7188","11.3280","0.0000","7.8766","-2.8984","6.8961","-2.6734","-0.0105","0.0220","-0.9971","0.4429","-0.1042","-0.3376","113.8750","0.0000","29.1000","27.6849","28.6000","0.0000","26.7000","0.0000","0.0000","0.3765","0.9706","0.6706","-0.2353","-0.5353","0.0000","0.6412","-0.0824","1.1471","-18.5420","0.0340","1.0000","0.0000","0.0000","0.0000","0.0000","0.0000","0.0000","0.0000","-0.1495","0.0000","0.7753","0.0000","0.0000","1.0000","0.0000","0.0000","0.0000","0.0000","0.0000","0.0000","0.0000","0.0000","0.0000","0.0000","5.1917","3.0337","0.0000","0.0000","0.0000","0.0000","0.0000","0.0000","0.0000","0.0000","0.0000","0.0000","0.0000","0.0000","36.5625","0.0000","0.0000","0.0000","-3.0200","-3.3100","1.6605","16583.4902","0.3802","0.0000","345699.9688","61.5000","25.0000","150.0000","38.0000","12.0000","3.5288","19.9288","1.0000","0.0000","0.0000","8.0829","3.0000","0.0000","0.0000","-0.0876","-112.0330","0.0000","323.3790","6548100.0000","10000.0000","40.8487","-80.3458"
"1.350","3.6134","3","0.0000","0.0000","-0.0876","-112.0330","0.0000","323.3790","200.0000","8.1400","10000.0000","40.84874490","-80.34581359","38.7240","11.3280","0.0000","7.8953","-2.8840","6.9172","-2.6801","-0.0106","0.0245","-0.9963","0.4414","-0.1396","-0.3551","113.8750","0.0000","29.1000","27.6799","28.6000","0.0000","26.7000","0.0000","0.0000","0.2294","0.5784","0.2784","-0.0392","-0.3392","0.0000","0.6902","-0.1804","0.6078","-18.5420","0.0340","1.0000","0.0000","0.0000","0.0000","0.0000","0.0000","0.0000","0.0000","-0.2570","0.0000","0.7215","0.0000","0.0000","1.0000","0.0000","0.0000","0.0000","0.0000","0.0000","0.0000","0.0000","0.0000","0.0000","0.0000","5.1739","3.0337","0.0000","0.0000","0.0000","0.0000","0.0000","0.0000","0.0000","0.0000","0.0000","0.0000","0.0000","0.0000","36.5625","0.0000","0.0000","0.0000","-3.0200","-3.3100","1.6986","16598.5723","0.4301","0.0000","345699.9688","61.5000","25.0000","150.0000","38.0000","12.0000","3.5192","19.9000","1.0000","0.0000","0.0000","8.0829","3.0000","0.0000","0.0000","-0.0876","-112.0330","0.0000","323.3790","6548100.0000","10000.0000","40.8487","-80.3458"
"1.400","3.6134","3","0.0000","0.0000","-0.0876","-112.0330","0.0000","323.3790","200.0000","8.1400","10000.0000","40.84874490","-80.34581359","38.7370","11.3280","0.0000","7.9055","-2.8891","6.9297","-2.6711","-0.0104","0.0243","-0.9961","0.4675","-0.1390","-0.3650","113.8750","0.0000","29.1000","27.6750","28.6000","0.0000","26.7000","0.0000","0.0000","0.3176","0.4216","0.3176","-0.1569","-0.3000","0.0000","0.7392","-0.2000","0.6980","-18.5420","0.0340","1.0000","0.0000","0.0000","0.0000","-0.0402","0.0000","0.0000","0.0000","-0.2032","0.0000","0.6677","0.0000","0.0000","1.0000","0.0000","0.0000","0.0000","0.0000","0.0000","0.0000","0.0000","0.0000","0.0000","0.0000","5.1461","3.0337","0.0000","0.0000","0.0000","0.0000","0.0000","0.0000","0.0000","0.0000","0.0000","0.0000","0.0000","0.0000","36.5625","0.0000","0.0000","0.0000","-3.0200","-3.3100","1.6605","16593.8086","0.4800","0.0000","345699.9688","61.5000","25.0000","150.0000","38.0000","12.0000","3.5673","19.9000","1.0000","0.0000","0.0000","8.0829","3.0000","0.0000","0.0000","-0.0876","-112.0330","0.0000","323.3790","6548100.0000","10000.0000","40.8487","-80.3458"
"1.450","3.6134","3","0.0000","0.0000","-0.0876","-112.0330","0.0000","323.3790","200.0000","8.1400","10000.0000","40.84874490","-80.34581359","38.7500","11.3280","0.0000","7.9242","-2.9027","6.8930","-2.6734","-0.0107","0.0221","-0.9971","0.4755","-0.1281","-0.3579","113.8750","0.0000","29.1000","27.6700","28.6000","0.0000","26.7000","0.0000","0.0000","0.4647","0.3235","0.4647","-0.3529","-0.3000","0.0000","0.7882","-0.2000","0.9455","-18.5420","0.0340","1.0000","0.0000","0.0000","0.0000","-0.0892","0.0000","0.0000","0.0000","-0.0419","0.0000","0.6140","0.0000","0.0000","1.0000","0.0000","0.0000","0.0000","0.0000","0.0000","0.0000","0.0000","0.0000","0.0000","0.0000","5.1550","3.0153","0.0000","0.0000","0.0000","0.0000","0.0000","0.0000","0.0000","0.0000","0.0000","0.0000","0.0000","0.0000","36.5625","0.0000","0.0000","0.0000","-3.0200","-3.3100","1.6300","16590.0000","0.5299","0.0000","345699.9688","61.5000","25.0000","150.0000","38.0000","12.0000","3.6000","19.9308","1.0000","0.0000","0.0000","8.0829","3.0000","0.0000","0.0000","-0.0876","-112.0330","0.0000","323.3790","6548100.0000","10000.0000","40.8487","-80.3458"
"1.500","3.6134","3","0.0000","0.0000","-0.0876","-112.0330","0.0000","323.3790","200.0000","8.1400","10000.0000","40.84874490","-80.34581359","38.7370","11.3247","0.0000","7.8953","-2.9062","6.9305","-2.6789","-0.0105","0.0242","-0.9966","0.4531","-0.1076","-0.3647","113.8750","0.0000","29.1000","27.6650","28.6000","0.0000","26.7000","0.0000","0.0000","0.8353","0.4863","0.6490","-0.4000","-0.3000","0.0000","0.7255","-0.3529","1.4971","-18.5420","0.0340","1.0000","0.0000","0.0000","0.0000","-0.1765","0.0000","0.0000","0.0000","-0.0796","0.0000","0.6398","0.0000","0.0000","1.0000","0.0000","0.0000","0.0000","0.0000","0.0000","0.0000","0.0000","0.0000","0.0000","0.0000","5.1828","2.9874","0.0000","0.0000","0.0000","0.0000","0.0000","0.0000","0.0000","0.0000","0.0000","0.0000","0.0000","0.0000","36.5625","0.0000","0.0000","0.0000","-2.9950","-3.3100","1.6300","16590.0000","0.5798","0.0000","345699.9688","61.5000","25.0000","150.0000","38.0000","12.0000","3.6000","20.0269","1.0000","0.0000","0.0000","8.0829","3.0000","0.0000","0.0000","-0.0876","-112.0330","0.0000","323.3790","6548100.0000","10000.0000","40.8487","-80.3458"
"1.550","3.6134","3","0.0000","0.0000","-0.0876","-112.0330","0.0000","323.3790","200.0000","8.1400","10000.0000","40.84874490","-80.34581359","38.7240","11.3213","0.0000","7.8898","-2.9031","6.8820","-2.6656","-0.0107","0.0247","-0.9963","0.4470","-0.0920","-0.3857","113.8750","0.0000","29.1000","27.6600","28.6000","0.0000","26.7000","0.0000","0.0000","1.2765","0.7314","0.8451","-0.4000","-0.3000","0.0000","0.6275","-0.5490","2.1343","-18.5420","0.0340","1.0000","0.0000","0.0000","0.0000","-0.2745","0.0000","0.0000","0.0000","-0.1871","0.0000","0.6935","0.0000","0.0000","1.0000","0.0000","0.0000","0.0000","0.0000","0.0000","0.0000","0.0000","0.0000","0.0000","0.0000","5.2082","2.9973","0.0000","0.0000","0.0000","0.0000","0.0000","0.0000","0.0000","0.0000","0.0000","0.0000","0.0000","0.0000","36.5625","0.0000","0.0000","0.0000","-2.9583","-3.3100","1.6300","16590.0000","0.6297","0.0000","345699.9688","61.5000","25.0000","150.0000","38.0000","12.0000","3.6115","20.0769","1.0000","0.0000","0.0000","8.0829","3.0000","0.0000","0.0000","-0.0876","-112.0330","0.0000","323.3790","6548100.0000","10000.0000","40.8487","-80.3458"
"1.600","3.6134","3","0.0000","0.0000","-0.0876","-112.0330","0.0000","323.3790","200.0000","8.1400","10000.0000","40.84874490","-80.34581359","38.7188","11.3200","0.0000","7.8992","-2.8895","6.9148","-2.6695","-0.0111","0.0228","-0.9966","0.4504","-0.0873","-0.3691","113.8750","0.0000","29.1000","27.6550","28.6000","0.0000","26.7000","0.0000","0.0000","1.1882","0.8000","0.9353","-0.4000","-0.3706","0.0000","0.7059","-0.4563","2.1563","-18.5420","0.0340","1.0000","0.0000","0.0000","0.0000","-0.1912","0.0000","0.0000","0.0000","-0.1054","0.0000","0.7000","0.0000","0.0000","1.0000","0.0000","0.0000","0.0000","0.0000","0.0000","0.0000","0.0000","0.0000","0.0000","0.0000","5.2323","3.0249","0.0000","0.0000","0.0000","0.0000","0.0000","0.0000","0.0000","0.0000","0.0000","0.0000","0.0000","0.0000","36.5625","0.0000","0.0000","0.0000","-2.9678","-3.2923","1.6684","16599.5918","0.6796","0.0000","345699.9688","61.5000","25.0000","150.0000","38.0000","12.0000","3.6596","19.9808","1.0000","0.0000","0.0000","8.0829","3.0000","0.0000","0.0000","-0.0876","-112.0330","0.0000","323.3790","6548100.0000","10000.0000","40.8487","-80.3458"
"1.650","3.6134","3","0.0000","0.0000","-0.0876","-112.0330","0.0000","323.3790","200.0000","8.1400","10000.0000","40.84874490","-80.34581359","38.7188","11.3200","0.0000","7.8891","-2.8895","6.9352","-2.6813","-0.0107","0.0238","-0.9966","0.4596","-0.0717","-0.3406","113.8750","0.0000","29.1000","27.6500","28.6000","0.0000","26.7000","0.0000","0.0000","0.8941","0.8000","0.9843","-0.4000","-0.4686","0.0000","0.8529","-0.2621","1.9621","-18.5420","0.0340","1.0000","0.0000","0.0000","0.0000","-0.0441","0.0000","0.0000","0.0000","-0.0011","0.0000","0.7000","0.0000","0.0000","1.0000","0.0000","0.0000","0.0000","0.0000","0.0000","0.0000","0.0000","0.0000","0.0000","0.0000","5.2234","3.0147","0.0000","0.0000","0.0000","0.0000","0.0000","0.0000","0.0000","0.0000","0.0000","0.0000","0.0000","0.0000","36.5625","0.0000","0.0000","0.0000","-3.0233","-3.2570","1.7092","16609.7969","0.7295","0.0000","345699.9688","61.5000","25.0000","150.0000","38.0000","12.0000","3.6846","19.9077","1.0000","0.0000","0.0000","8.0829","3.0000","0.0000","0.0000","-0.0876","-112.0330","0.0000","323.3790","6548100.0000","10000.0000","40.8487","-80.3458"
"1.700","3.6134","3","0.0000","0.0000","-0.0876","-112.0330","0.0000","323.3790","200.0000","8.1400","10000.0000","40.84874490","-80.34581359","38.7188","11.3200","0.0000","7.8914","-2.8848","6.9258","-2.6699","-0.0107","0.0247","-0.9961","0.4565","-0.0766","-0.3022","113.8750","0.0000","29.1000","27.6450","28.6000","0.0000","26.7000","0.0000","0.0000","0.7667","0.9667","0.8667","-0.1667","-0.3333","0.0000","0.7333","-0.2000","1.7333","-18.5420","0.0340","1.0000","0.0000","0.0000","0.0000","-0.0343","0.0000","0.0000","0.0000","-0.0548","0.0000","0.7000","0.0000","0.0000","1.0000","0.0000","0.0000","0.0000","0.0000","0.0000","0.0000","0.0000","0.0000","0.0000","0.0000","5.1991","2.9869","0.0000","0.0000","0.0000","0.0000","0.0000","0.0000","0.0000","0.0000","0.0000","0.0000","0.0000","0.0000","36.5625","0.0000","0.0000","0.0000","-3.0500","-3.2505","1.7100","16614.6660","0.7794","0.0000","345699.9688","61.5000","25.0000","150.0000","38.0000","12.0000","3.5885","19.9558","1.0000","0.0000","0.0000","8.0829","3.0000","0.0000","0.0000","-0.0876","-112.0330","0.0000","323.3790","6548100.0000","10000.0000","40.8487","-80.3458"
"1.750","3.6134","3","0.0000","0.0000","-0.0876","-112.0330","0.0000","323.3790","200.0000","8.1400","10000.0000","40.84874490","-80.34581359","38.7188","11.3200","0.0000","7.8844","-2.9047","6.9461","-2.6684","-0.0109","0.0230","-0.9963","0.4624","-0.0825","-0.3053","113.8750","0.0000","29.1000","27.6400","28.6000","0.0000","26.7000","0.0000","0.0000","0.7176","1.2118","0.6706","0.1765","-0.0882","0.0000","0.4882","-0.2000","1.4882","-18.5420","0.0340","1.0000","0.0000","0.0000","0.0000","-0.0833","0.0000","0.0000","0.0000","-0.0914","0.0000","0.7086","0.0000","0.0000","1.0000","0.0000","0.0000","0.0000","0.0000","0.0000","0.0000","0.0000","0.0000","0.0000","0.0000","5.1917","2.9962","0.0000","0.0000","0.0000","0.0000","0.0000","0.0000","0.0000","0.0000","0.0000","0.0000","0.0000","0.0000","36.5625","0.0000","0.0000","0.0000","-3.0500","-3.2707","1.7100","16619.4277","0.8293","0.0000","345699.9688","61.5000","25.0000","150.0000","38.0000","12.0000","3.5000","20.0000","1.0000","0.0000","0.0000","8.0829","3.0000","0.0000","0.0000","-0.0876","-112.0330","0.0000","323.3790","6548100.0000","10000.0000","40.8487","-80.3458"
"1.800","3.6134","3","0.0000","0.0000","-0.0876","-112.0330","0.0000","323.3790","200.0000","8.1400","10000.0000","40.84874490","-80.34581359","38.7188","11.3200","0.0000","7.8844","-2.8879","6.9148","-2.6773","-0.0108","0.0235","-0.9961","0.4546","-0.0740","-0.3091","113.8750","0.0000","29.1000","27.6350","28.6000","0.0000","26.7000","0.0000","0.0000","0.8255","1.2059","0.8196","-0.0137","-0.1569","0.0000","0.4941","-0.2000","1.7451","-18.5420","0.0340","1.0000","0.0000","0.0000","0.0000","-0.1000","0.0000","0.0000","0.0000","-0.0376","0.0000","0.7624","0.0000","0.0000","1.0000","0.0000","0.0000","0.0000","0.0000","0.0000","0.0000","0.0000","0.0000","0.0000","0.0000","5.1917","3.0215","0.0000","0.0000","0.0000","0.0000","0.0000","0.0000","0.0000","0.0000","0.0000","0.0000","0.0000","0.0000","36.5625","0.0000","0.0000","0.0000","-3.0311","-3.2800","1.6765","16615.8086","0.8792","0.0000","345699.9688","61.5000","25.0000","150.0000","38.0000","12.0000","3.5000","20.0000","1.0000","0.0000","0.0000","8.0829","3.0000","0.0000","0.0000","-0.0876","-112.0330","0.0000","323.3790","6548100.0000","10000.0000","40.8487","-80.3458"
"1.850","3.6134","3","0.0000","0.0000","-0.0876","-112.0330","0.0000","323.3790","200.0000","8.1400","10000.0000","40.84874490","-80.34581359","38.7188","11.3200","0.0000","7.8867","-2.8930","6.9281","-2.6848","-0.0104","0.0242","-0.9961","0.4493","-0.0795","-0.3275","113.8750","0.0000","29.1000","27.6300","28.6000","0.0000","26.7000","0.0000","0.0000","1.0216","1.0588","1.1627","-0.5039","-0.4020","0.0000","0.6412","-0.2000","2.2843","-18.5420","0.0340","1.0000","0.0000","0.0000","0.0000","-0.1000","0.0000","0.0000","0.0000","0.0000","0.0000","0.7839","0.0000","0.0000","1.0000","0.0000","0.0000","0.0000","0.0000","0.0000","0.0000","0.0000","0.0000","0.0000","0.0000","5.1917","3.0192","0.0000","0.0000","0.0000","0.0000","0.0000","0.0000","0.0000","0.0000","0.0000","0.0000","0.0000","0.0000","36.5625","0.0000","0.0000","0.0000","-2.9961","-3.2800","1.6384","16611.0469","0.9291","0.0000","345699.9688","61.5000","25.0000","150.0000","38.0000","12.0000","3.5000","20.0000","1.0000","0.0000","0.0000","8.0829","3.0000","0.0000","0.0000","-0.0876","-112.0330","0.0000","323.3790","6548100.0000","10000.0000","40.8487","-80.3458"
"1.900","3.6134","3","0.0000","0.0000","-0.0876","-112.0330","0.0000","323.3790","200.0000","8.1400","10000.0000","40.84874490","-80.34581359","38.7188","11.3200","0.0000","7.8859","-2.8996","6.9078","-2.6719","-0.0107","0.0231","-0.9966","0.4495","-0.0895","-0.3293","113.8750","0.0000","29.1000","27.6250","28.6000","0.0000","26.7000","0.0000","0.0000","1.1294","1.0294","1.3000","-0.4941","-0.6471","0.0000","0.6706","-0.2294","2.5294","-18.5420","0.0340","1.0000","0.0000","0.0000","0.0000","-0.1000","0.0000","0.0000","0.0000","0.0000","0.0000","0.7301","0.0000","0.0000","1.0000","0.0000","0.0000","0.0000","0.0000","0.0000","0.0000","0.0000","0.0000","0.0000","0.0000","5.1917","2.9913","0.0000","0.0000","0.0000","0.0000","0.0000","0.0000","0.0000","0.0000","0.0000","0.0000","0.0000","0.0000","36.5625","0.0000","0.0000","0.0000","-2.9899","-3.2800","1.6300","16610.0000","0.9790","0.0000","345699.9688","61.5000","25.0000","150.0000","38.0000","12.0000","3.5476","19.9524","1.0000","0.0000","0.0000","8.0829","3.0000","0.0000","0.0000","-0.0876","-112.0330","0.0000","323.3790","6548100.0000","10000.0000","40.8487","-80.3458"
"1.950","3.6134","3","0.0000","0.0000","-0.0876","-112.0330","0.0000","323.3790","200.0000","8.1400","10000.0000","40.84874490","-80.34581359","38.7188","11.3200","0.0000","7.8883","-2.9027","6.9297","-2.6773","-0.0109","0.0235","-0.9961","0.4628","-0.0900","-0.3215","113.8750","0.0000","29.1000","27.6201","28.6000","0.0000","26.7000","0.0000","0.0000","1.1784","1.0784","1.3000","-0.1510","-0.8922","0.0000","0.6216","-0.2784","2.5784","-18.5420","0.0340","1.0000","0.0000","0.0000","0.0000","-0.1000","0.0000","0.0000","0.0000","0.0000","0.0000","0.6763","0.0000","0.0000","1.0000","0.0000","0.0000","0.0000","0.0000","0.0000","0.0000","0.0000","0.0000","0.0000","0.0000","5.1917","2.9785","0.0000","0.0000","0.0000","0.0000","0.0000","0.0000","0.0000","0.0000","0.0000","0.0000","0.0000","0.0000","36.5625","0.0000","0.0000","0.0000","-3.0083","-3.2800","1.6300","16610.0000","0.9711","0.0000","345699.9688","61.5000","25.0000","150.0000","38.0000","12.0000","3.5952","19.9048","1.0000","0.0000","0.0000","8.0829","3.0000","0.0000","0.0000","-0.0876","-112.0330","0.0000","323.3790","6548100.0000","10000.0000","40.8487","-80.3458"
"2.000","3.6134","3","0.0000","0.0000","-0.0876","-112.0330","0.0000","323.3790","200.0000","8.1400","10000.0000","40.84874490","-80.34581359","38.7188","11.3200","0.0000","7.8852","-2.8992","6.9250","-2.6727","-0.0110","0.0245","-0.9961","0.4888","-0.0991","-0.3259","113.8750","0.0000","29.1000","27.6151","28.6000","0.0000","26.7000","0.0000","0.0000","1.1725","1.1549","1.1353","-0.1098","-0.9176","0.0000","0.5451","-0.3554","2.4059","-18.5420","0.0340","1.0000","0.0000","0.0000","0.0000","-0.1284","0.0000","0.0000","0.0000","0.0000","0.0000","0.6226","0.0000","0.0000","1.0000","0.0000","0.0000","0.0000","0.0000","0.0000","0.0000","0.0000","0.0000","0.0000","0.0000","5.1917","2.9785","0.0000","0.0000","0.0000","0.0000","0.0000","0.0000","0.0000","0.0000","0.0000","0.0000","0.0000","0.0000","36.5625","0.0000","0.0000","0.0000","-3.0127","-3.2800","1.6300","16604.4824","0.9212","0.0000","345699.9688","61.5000","25.0000","150.0000","38.0000","12.0000","3.6000","19.9437","1.0000","0.0000","0.0000","8.0829","3.0000","0.0000","0.0000","-0.0876","-112.0330","0.0000","323.3790","6548100.0000","10000.0000","40.8487","-80.3458"
"2.050","3.6134","3","0.0000","0.0000","-0.0876","-112.0330","0.0000","323.3790","200.0000","8.1400","10000.0000","40.84874490","-80.34581359","38.7188","11.3200","0.0000","7.8906","-2.9145","6.9523","-2.6699","-0.0107","0.0236","-0.9961","0.4865","-0.1114","-0.3466","113.8750","0.0000","29.1000","27.6101","28.6000","0.0000","26.7000","0.0000","0.0000","1.1235","1.2529","0.8412","-0.3059","-0.7706","0.0000","0.4471","-0.4545","2.0594","-18.5420","0.0340","1.0000","0.0000","0.0000","0.0000","-0.1775","0.0000","0.0000","0.0000","-0.1247","0.0000","0.6624","0.0000","0.0000","1.0000","0.0000","0.0000","0.0000","0.0000","0.0000","0.0000","0.0000","0.0000","0.0000","0.0000","5.1917","2.9785","0.0000","0.0000","0.0000","0.0000","0.0000","0.0000","0.0000","0.0000","0.0000","0.0000","0.0000","0.0000","36.5625","0.0000","0.0000","0.0000","-2.9925","-3.2800","1.6300","16595.8613","0.8713","0.0000","345699.9688","61.5000","25.0000","150.0000","38.0000","12.0000","3.6000","19.9922","1.0000","0.0000","0.0000","8.0829","3.0000","0.0000","0.0000","-0.0876","-112.0330","0.0000","323.3790","6548100.0000","10000.0000","40.8487","-80.3458"
"2.100","3.6134","3","0.0000","0.0000","-0.0876","-112.0330","0.0000","323.3790","200.0000","8.1400","10000.0000","40.84874490","-80.34581359","38.7188","11.3200","0.0000","7.8797","-2.9043","6.9289","-2.6824","-0.0106","0.0235","-0.9961","0.4688","-0.1075","-0.3411","113.8750","0.0000","29.1000","27.6051","28.6000","0.0000","26.7000","0.0000","0.0000","0.8196","0.9686","0.6235","-0.4000","-0.5471","0.0000","0.4510","-0.3165","1.5330","-18.5420","0.0340","1.0000","0.0000","0.0000","0.0000","-0.2000","0.0000","0.0000","0.0000","-0.3398","0.0000","0.7699","0.0000","0.0000","1.0000","0.0000","0.0000","0.0000","0.0000","0.0000","0.0000","0.0000","0.0000","0.0000","0.0000","5.1917","2.9785","0.0000","0.0000","0.0000","0.0000","0.0000","0.0000","0.0000","0.0000","0.0000","0.0000","0.0000","0.0000","36.5625","0.0000","0.0000","0.0000","-2.9800","-3.2800","1.6300","16591.6836","0.8214","0.0000","345699.9688","61.5000","25.0000","150.0000","38.0000","12.0000","3.5596","20.0000","1.0000","0.0000","0.0000","8.0829","3.0000","0.0000","0.0000","-0.0876","-112.0330","0.0000","323.3790","6548100.0000","10000.0000","40.8487","-80.3458"
"2.150","3.6134","3","0.0000","0.0000","-0.0876","-112.0330","0.0000","323.3790","200.0000","8.1400","10000.0000","40.84874490","-80.34581359","38.7188","11.3200","0.0000","7.8875","-2.8816","6.9352","-2.6715","-0.0109","0.0242","-0.9963","0.4884","-0.1165","-0.3354","113.8750","0.0000","29.1000","27.6001","28.6000","0.0000","26.7000","0.0000","0.0000","0.2804","0.3314","0.4765","-0.4000","-0.2529","0.0000","0.5490","0.0233","0.8534","-18.5420","0.0340","1.0000","0.0000","0.0000","0.0000","-0.2000","0.0000","0.0000","0.0000","-0.2452","0.0000","0.7613","0.0000","0.0000","1.0000","0.0000","0.0000","0.0000","0.0000","0.0000","0.0000","0.0000","0.0000","0.0000","0.0000","5.1917","2.9941","0.0000","0.0000","0.0000","0.0000","0.0000","0.0000","0.0000","0.0000","0.0000","0.0000","0.0000","0.0000","36.5625","0.0000","0.0000","0.0000","-2.9800","-3.2800","1.6300","16596.9473","0.7715","0.0000","345699.9688","61.5000","25.0000","150.0000","38.0000","12.0000","3.5115","20.0000","1.0000","0.0000","0.0000","8.0829","3.0000","0.0000","0.0000","-0.0876","-112.0330","0.0000","323.3790","6548100.0000","10000.0000","40.8487","-80.3458"
"2.200","3.6134","3","0.0000","0.0000","-0.0876","-112.0330","0.0000","323.3790","200.0000","8.1400","10000.0000","40.84874490","-80.34581359","38.7188","11.3200","0.0000","7.8930","-2.8891","6.9250","-2.6340","-0.0109","0.0238","-0.9966","0.5156","-0.0998","-0.3269","113.8750","0.0000","29.1000","27.6000","28.6000","0.0000","26.7245","0.0000","0.0000","0.0471","0.0471","0.4000","-0.2824","-0.2412","0.0000","0.6471","0.1529","0.5471","-18.5420","0.0340","1.0000","0.0000","0.0000","0.0000","-0.1510","0.0000","0.0000","0.0000","-0.0301","0.0000","0.7075","0.0000","0.0000","1.0000","0.0000","0.0000","0.0000","0.0000","0.0000","0.0000","0.0000","0.0000","0.0000","0.0000","5.1917","3.0220","0.0000","0.0000","0.0000","0.0000","0.0000","0.0000","0.0000","0.0000","0.0000","0.0000","0.0000","0.0000","36.5625","0.0000","0.0000","0.0000","-2.9940","-3.2800","1.6458","16598.0195","0.7216","0.0000","345699.9688","61.5000","25.0000","150.0000","38.0000","12.0000","3.5365","19.9635","1.0000","0.0000","0.0000","8.0829","3.0000","0.0000","0.0000","-0.0876","-112.0330","0.0000","323.3790","6548100.0000","10000.0000","40.8487","-80.3458"
"2.250","3.6134","3","0.0000","0.0000","-0.0876","-112.0330","0.0000","323.3790","200.0000","8.1400","10000.0000","40.84874490","-80.34581359","38.7188","11.3200","0.0000","7.9023","-2.9156","6.9117","-2.6613","-0.0104","0.0236","-0.9966","0.5059","-0.0947","-0.3167","113.8750","0.0000","29.1000","27.6000","28.6000","0.0000","26.7495","0.0000","0.0000","0.1451","0.1451","0.4000","-0.0373","-0.5353","0.0000","0.7451","0.0549","0.6451","-18.5420","0.0340","1.0000","0.0000","0.0000","0.0000","-0.0529","0.0000","0.0000","0.0000","-0.0925","0.0000","0.7462","0.0000","0.0000","1.0000","0.0000","0.0000","0.0000","0.0000","0.0000","0.0000","0.0000","0.0000","0.0000","0.0000","5.1917","3.0337","0.0000","0.0000","0.0000","0.0000","0.0000","0.0000","0.0000","0.0000","0.0000","0.0000","0.0000","0.0000","36.5625","0.0000","0.0000","0.0000","-3.0290","-3.2800","1.6836","16593.3027","0.6717","0.0000","345699.9688","61.5000","25.0000","150.0000","38.0000","12.0000","3.5846","19.9154","1.0000","0.0000","0.0000","8.0829","3.0000","0.0000","0.0000","-0.0876","-112.0330","0.0000","323.3790","6548100.0000","10000.0000","40.8487","-80.3458"
"2.300","3.6134","3","0.0000","0.0000","-0.0876","-112.0330","0.0000","323.3790","200.0000","8.1400","10000.0000","40.84874490","-80.34581359","38.7188","11.3200","0.0000","7.8758","-2.8914","6.9281","-2.6715","-0.0107","0.0246","-0.9966","0.4788","-0.0988","-0.3130","113.8750","0.0000","29.1000","27.6000","28.6000","0.0000","26.7746","0.0000","0.0000","0.1569","0.0275","0.3353","0.1431","-0.5490","0.0000","0.7569","0.0000","0.5706","-18.5420","0.0340","1.0000","0.0000","0.0000","0.0000","0.0000","0.0000","0.0000","0.0000","-0.2000","0.0000","0.8000","0.0000","0.0000","1.0000","0.0000","0.0000","0.0000","0.0000","0.0000","0.0000","0.0000","0.0000","0.0000","0.0000","5.1917","3.0337","0.0000","0.0000","0.0000","0.0000","0.0000","0.0000","0.0000","0.0000","0.0000","0.0000","0.0000","0.0000","36.5625","0.0000","0.0000","0.0000","-3.0445","-3.2928","1.6990","16590.0000","0.6218","0.0000","345699.9688","61.5000","25.0000","150.0000","38.0000","12.0000","3.6000","19.9327","1.0000","0.0000","0.0000","8.0829","3.0000","0.0000","0.0000","-0.0876","-112.0330","0.0000","323.3790","6548100.0000","10000.0000","40.8487","-80.3458"
"2.350","3.6134","3","0.0000","0.0000","-0.0876","-112.0330","0.0000","323.3790","200.0000","8.1400","10000.0000","40.84874490","-80.34581359","38.7188","11.3200","0.0000","7.8711","-2.8852","6.9383","-2.6684","-0.0110","0.0241","-0.9966","0.4552","-0.0691","-0.3239","113.8750","0.0000","29.1000","27.6000","28.6000","0.0000","26.7996","0.0000","0.0000","0.0588","-0.3647","0.1882","0.2412","-0.2059","0.0000","0.6588","0.0000","0.2765","-18.5420","0.0340","1.0000","0.0000","0.0000","0.0000","0.0000","0.0000","0.0000","0.0000","-0.0925","0.0000","0.6387","0.0000","0.0000","1.0000","0.0000","0.0000","0.0000","0.0000","0.0000","0.0000","0.0000","0.0000","0.0000","0.0000","5.1752","3.0337","0.0000","0.0000","0.0000","0.0000","0.0000","0.0000","0.0000","0.0000","0.0000","0.0000","0.0000","0.0000","36.5625","0.0000","0.0000","0.0000","-3.0307","-3.3250","1.6623","16590.0000","0.5719","0.0000","345699.9688","61.5000","25.0000","150.0000","38.0000","12.0000","3.6000","19.9808","1.0000","0.0000","0.0000","8.0829","3.0000","0.0000","0.0000","-0.0876","-112.0330","0.0000","323.3790","6548100.0000","10000.0000","40.8487","-80.3458"
"2.400","3.6134","3","0.0000","0.0000","-0.0876","-112.0330","0.0000","323.3790","200.0000","8.1400","10000.0000","40.84874490","-80.34581359","38.7188","11.3200","0.0000","7.8766","-2.8867","6.9414","-2.6688","-0.0107","0.0232","-0.9961","0.4434","-0.0775","-0.3384","113.8750","0.0000","29.1000","27.6000","28.6000","0.0000","26.8246","0.0000","0.0000","0.2353","-0.3255","0.3353","0.2020","-0.1373","0.0000","0.6392","-0.0588","0.5902","-18.5420","0.0340","1.0000","0.0000","0.0000","0.0000","-0.0206","0.0000","0.0000","0.0000","0.0000","0.0000","0.5075","0.0000","0.0000","1.0000","0.0000","0.0000","0.0000","0.0000","0.0000","0.0000","0.0000","0.0000","0.0000","0.0000","5.1476","3.0337","0.0000","0.0000","0.0000","0.0000","0.0000","0.0000","0.0000","0.0000","0.0000","0.0000","0.0000","0.0000","36.5625","0.0000","0.0000","0.0000","-3.0156","-3.3456","1.6300","16590.0000","0.5220","0.0000","345699.9688","61.5000","25.0000","150.0000","38.0000","12.0000","3.6000","20.0000","1.0000","0.0000","0.0000","8.0829","3.0000","0.0000","0.0000","-0.0876","-112.0330","0.0000","323.3790","6548100.0000","10000.0000","40.8487","-80.3458"
"2.450","3.6134","3","0.0000","0.0000","-0.0876","-112.0330","0.0000","323.3790","200.0000","8.1400","10000.0000","40.84874490","-80.34581359","38.7188","11.3200","0.0000","7.9164","-2.8988","6.9180","-2.6711","-0.0108","0.0238","-0.9961","0.4401","-0.1009","-0.3391","113.8750","0.0000","29.1000","27.6000","28.6000","0.0000","26.8497","0.0000","0.0000","0.8235","0.3608","0.9235","-0.0431","-0.4804","0.0000","0.7373","-0.2059","1.8157","-18.5420","0.0340","1.0000","0.0000","0.0000","0.0000","-0.0696","0.0000","0.0000","0.0000","0.0000","0.0000","0.5613","0.0000","0.0000","1.0000","0.0000","0.0000","0.0000","0.0000","0.0000","0.0000","0.0000","0.0000","0.0000","0.0000","5.1518","3.0337","0.0000","0.0000","0.0000","0.0000","0.0000","0.0000","0.0000","0.0000","0.0000","0.0000","0.0000","0.0000","36.5625","0.0000","0.0000","0.0000","-2.9954","-3.3254","1.6300","16590.0000","0.4721","0.0000","345699.9688","61.5000","25.0000","150.0000","38.0000","12.0000","3.6000","20.0000","1.0000","0.0000","0.0000","8.0829","3.0000","0.0000","0.0000","-0.0876","-112.0330","0.0000","323.3790","6548100.0000","10000.0000","40.8487","-80.3458"
"2.500","3.6134","3","0.0000","0.0000","-0.0876","-112.0330","0.0000","323.3790","200.0000","8.1400","10000.0000","40.84874490","-80.34581359","38.7188","11.3200","0.0000","7.9234","-2.8949","6.9164","-2.6492","-0.0112","0.0238","-0.9966","0.4421","-0.1175","-0.3582","113.8750","0.0000","29.1000","27.6000","28.6000","0.0000","26.8747","0.0000","0.0000","1.1294","0.9765","1.3000","-0.2882","-0.7000","0.0000","0.7647","-0.2644","2.5287","-18.5420","0.0340","1.0000","0.0000","0.0000","0.0000","-0.0814","0.0000","0.0000","0.0000","0.0000","0.0000","0.5849","0.0000","0.0000","1.0000","0.0000","0.0000","0.0000","0.0000","0.0000","0.0000","0.0000","0.0000","0.0000","0.0000","5.1771","3.0337","0.0000","0.0000","0.0000","0.0000","0.0000","0.0000","0.0000","0.0000","0.0000","0.0000","0.0000","0.0000","36.5625","0.0000","0.0000","0.0000","-2.9848","-3.3064","1.6300","16590.0000","0.4222","0.0000","345699.9688","61.5000","25.0000","150.0000","38.0000","12.0000","3.6000","20.0000","1.0000","0.0000","0.0000","8.0829","3.0000","0.0000","0.0000","-0.0876","-112.0330","0.0000","323.3790","6548100.0000","10000.0000","40.8487","-80.3458"
