Time,GPS Speed,GPS Nsat,GPS LatAcc,GPS LonAcc,GPS Slope,GPS Heading,GPS Gyro,GPS Altitude,GPS PosAccuracy,GPS SpdAccuracy,GPS Radius,GPS Latitude,GPS Longitude,LoggerTemp,External Voltage,RPM,F Heave,F Roll,R Heave,R Roll,InlineAcc,LateralAcc,VerticalAcc,RollRate,PitchRate,YawRate,Luminosity,Inverter Enable,D4 Gate Driver B,D3 Module C,D1 Control Board,D4 Torque Shudde,D3 Motor Tempera,D2 Motor Speed,D4 DC Bus Curren,D1 Phase A Curre,D3 Phase C Curre,D2 Phase B Curre,D4 VBC Vq Voltag,D3 VAB Vd Voltag,D2 Output Voltag,D1 DC Bus Voltag,D4 Iq,D3 Id,D2 Flux Feedback,D1 Flux Command,D7 Direction Com,D6 Inverter Enab,D7 BMS Torque Li,D1 Commanded Tor,D2 Torque Feedba,D4 Iq Command,D3 Id Command,Fast Torque Comm,Fast Torque Feed,Fast Motor Speed,Fast DC Bus Volt,Inverter Enable dup 1,Speed Mode Enabl,Direction Comman,Torque Command,Inverter Dischar,Torque Limit Com,Current,Voltage,RDTActive,D3 HV Input Current,SteeringWheelPos,BrakeLightActive,TSAL Active,BrakeSensor1,BrakeSensor2,SpeedFrontRight,SpeedRearLeft,SpeedFrontLeft,SpeedRearRight,SpeedFrontRightMph,SpeedRearLeftMph,SpeedFrontLeftMph,SpeedRearRightMph,FrontLeft,FrontRight,RearLeft,RearRight,Temperature,CoolantTemp,MotorPumpStatus1,MotorPumpStatus2,APPS1,APPS2,LV Current,LV Voltage,HeartBit,Pack Current,Pack Inst Voltag,Pack SOC,Average Temperat,Pack DCL,High Temperature,Low Temperature,High Cell Voltag,Low Cell Voltage,MultiPurpose  01,Maximum Pack Vol,Minimum Cell Vol,GPS Speed,GPS Nsat,GPS LatAcc,GPS LonAcc,GPS Slope,GPS Heading,GPS Gyro,GPS Altitude,GPS PosAccuracy,GPS Radius,GPS Latitude,GPS Longitude,Distance on GPS Speed
0,4.5169,5,0,0,-0.0008,55.2787,0,320.4348,200,10.3,10000,40.84901876,-80.34534029,45.3125,11.296,0,14.3438,-3.1582,10.0156,-2.7754,-0.0165,-0.0234,-0.9922,1.458,-0.1998,-0.8604,62.875,0,38.1,34.2,37.5,0,41.1,11,0,0,-0.1,0.5,1,-0.1,0,1.6,0.6,-0.2,-18.542,0.034,1,0,0,0,0.3,0,0,0,-0.2,12,1.8,0,0,1,0,0,0,0,0,0,0,0,0,0,5.24,2.9303,0,0,0,0,0,0,0,0,0,0,0,0,36.6875,0,0,0,-2.48,-2.68,1.85,19370,0,0,338099.9688,49.5,27,156,40,14,21.1,13.2,1,0,0,10.1041,5,0,0,-0.0008,55.2787,0,320.4348,3175700,10000,40.849,-80.3453,0
0.05,4.5169,5,0,0,-0.0008,55.2787,0,320.4348,200,10.3,10000,40.84901876,-80.34534029,45.3125,11.296,0,14.3438,-3.1582,10.0156,-2.7754,-0.0204,-0.0171,-0.9915,1.458,-0.1998,-0.8604,62.875,0,38.1,34.2,37.5,0,41.1,11,0,0,-0.1,0.5,1,-0.1,0,1.6,0.6,-0.2,-18.542,0.034,1,0,0,0,0.3,0,0,0,-0.2,12,1.8,0,0,1,0,0,0,0,0,0,0,0,0,0,5.24,2.9303,0,0,0,0,0,0,0,0,0,0,0,0,36.6875,0,0,0,-2.48,-2.68,1.85,19370,0,0,338099.9688,49.5,27,156,40,14,21.1,13.2,1,0,0,10.1041,5,0,0,-0.0008,55.2787,0,320.4348,3175700,10000,40.849,-80.3453,0.101
0.1,4.5169,5,0,0,-0.0008,55.2787,0,320.4348,200,10.3,10000,40.84901876,-80.34534029,45.3125,11.296,0,14.3438,-3.1582,10.0156,-2.7754,-0.0194,-0.0182,-0.9902,1.458,-0.1998,-0.8604,62.875,0,38.1,34.2,37.5,0,41.1,11,0,0,-0.1,0.5,1,-0.1,0,1.6,0.6,-0.2,-18.542,0.034,1,0,0,0,0.3,0,0,0,-0.2,12,1.8,0,0,1,0,0,0,0,0,0,0,0,0,0,5.24,2.9303,0,0,0,0,0,0,0,0,0,0,0,0,36.6875,0,0,0,-2.48,-2.68,1.85,19370,0,0,338099.9688,49.5,27,156,40,14,21.1,13.2,1,0,0,10.1041,5,0,0,-0.0008,55.2787,0,320.4348,3175700,10000,40.849,-80.3453,0.2019
0.15,4.5169,5,0,0,-0.0008,55.2787,0,320.4348,200,10.3,10000,40.84901876,-80.34534029,45.3125,11.296,0,14.3438,-3.1582,10.0156,-2.7754,-0.017,-0.021,-0.9902,1.458,-0.1998,-0.8604,62.875,0,38.1,34.2,37.5,0,41.1,11,0,0,-0.1,0.5,1,-0.1,0,1.6,0.6,-0.2,-18.542,0.034,1,0,0,0,0.3,0,0,0,-0.2,12,1.8,0,0,1,0,0,0,0,0,0,0,0,0,0,5.24,2.9303,0,0,0,0,0,0,0,0,0,0,0,0,36.6875,0,0,0,-2.48,-2.68,1.85,19370,0,0,338099.9688,49.5,27,156,40,14,21.1,13.2,1,0,0,10.1041,5,0,0,-0.0008,55.2787,0,320.4348,3175700,10000,40.849,-80.3453,0.3029
0.2,4.5169,5,0,0,-0.0008,55.2787,0,320.4348,200,10.3,10000,40.84901876,-80.34534029,45.3125,11.296,0,14.3438,-3.1582,10.0156,-2.7754,-0.0167,-0.0215,-0.9912,1.458,-0.1998,-0.8604,62.875,0,38.1,34.2,37.5,0,41.1,11,0,0,-0.1,0.5,1,-0.1,0,1.6,0.6,-0.2,-18.542,0.034,1,0,0,0,0.3,0,0,0,-0.2,12,1.8,0,0,1,0,0,0,0,0,0,0,0,0,0,5.24,2.9303,0,0,0,0,0,0,0,0,0,0,0,0,36.6875,0,0,0,-2.48,-2.68,1.85,19370,0,0,338099.9688,49.5,27,156,40,14,21.1,13.2,1,0,0,10.1041,5,0,0,-0.0008,55.2787,0,320.4348,3175700,10000,40.849,-80.3453,0.4039
0.25,4.5169,5,0,0,-0.0008,55.2787,0,320.4348,200,10.3,10000,40.84901876,-80.34534029,45.3125,11.296,0,14.3438,-3.1582,10.0156,-2.7754,-0.0164,-0.0202,-0.9917,1.4658,-0.2512,-0.8887,62.875,0,38.1,34.2,37.5,0,41.1,11,0,0,-0.1,0.5,1,-0.1,0,1.6,0.6,-0.2,-18.542,0.034,1,0,0,0,0.3,0,0,0,-0.2,12,1.8,0,0,1,0,0,0,0,0,0,0,0,0,0,5.24,2.9303,0,0,0,0,0,0,0,0,0,0,0,0,36.6875,0,0,0,-2.48,-2.68,1.85,19370,0,0,338099.9688,49.5,27,156,40,14,21.1,13.2,1,0,0,10.1041,5,0,0,-0.0008,55.2787,0,320.4348,3175700,10000,40.849,-80.3453,0.5048
0.3,4.5169,5,0,0,-0.0008,55.2787,0,320.4348,200,10.3,10000,40.84901876,-80.34534029,45.3125,11.296,0,14.3438,-3.1582,10.0156,-2.7754,-0.0179,-0.0191,-0.9897,1.4756,-0.2893,-0.8804,62.875,0,38.1,34.2,37.5,0,41.1,11,0,0,-0.1,0.5,1,-0.1,0,1.6,0.6,-0.2,-18.542,0.034,1,0,0,0,0.3,0,0,0,-0.2,12,1.8,0,0,1,0,0,0,0,0,0,0,0,0,0,5.24,2.9303,0,0,0,0,0,0,0,0,0,0,0,0,36.6875,0,0,0,-2.48,-2.68,1.838,19364.8574,0,0,338099.9688,49.5,27,156,40,14,21.1,13.2,1,0,0,10.1041,5,0,0,-0.0008,55.2787,0,320.4348,3175700,10000,40.849,-80.3453,0.6058
0.35,4.5169,5,0,0,-0.0008,55.2787,0,320.4348,200,10.3,10000,40.84901876,-80.34534029,45.3125,11.296,0,14.3438,-3.1582,10.0156,-2.7754,-0.0195,-0.0204,-0.99,1.4717,-0.1838,-0.9321,62.875,0,38.1,34.2,37.5,0,41.1,11,0,0,-0.1,0.5,1,-0.1,0,1.6,0.6,-0.2,-18.542,0.034,1,0,0,0,0.3,0,0,0,-0.2,12,1.8,0,0,1,0,0,0,0,0,0,0,0,0,0,5.24,2.918,0,0,0,0,0,0,0,0,0,0,0,0,36.6875,0,0,0,-2.4791,-2.68,1.8047,19350.5723,0,0,338099.9688,49.5,27,156,40,14,21.1154,13.2,1,0,0,10.1041,5,0,0,-0.0008,55.2787,0,320.4348,3175700,10000,40.849,-80.3453,0.7067
0.4,4.5169,5,0,0,-0.0008,55.2787,0,320.4348,200,10.3,10000,40.84901876,-80.34534029,45.3125,11.296,0,14.343,-3.1506,10.0148,-2.7918,-0.0188,-0.021,-0.9902,1.4629,-0.1356,-0.9277,62.875,0,38.1,34.2,37.5,0,41.1,9.6275,0,0.3431,0.3461,0.6716,0.6569,-0.4775,0,1.6,0.7765,0.5412,-18.542,0.034,1,0,0,0,0.3706,0,0,0,-0.1194,10.3871,1.8,0,0,1,0,0,0,0,0,0,0,0,0,0,5.24,2.8902,0,0,0,0,0,0,0,0,0,0,0,0,36.6875,0,0,0,-2.4639,-2.68,1.7887,19344.9531,0,0,338099.9688,49.5,27,156,40,14,21.1635,13.2,1,0,0,10.1041,5,0,0,-0.0008,55.2787,0,320.4348,3175700,10000,40.849,-80.3453,0.8077
0.45,4.5169,5,0,0,-0.0008,55.2787,0,320.4348,200,10.3,10000,40.84901876,-80.34534029,45.3023,11.2934,0,14.3523,-3.1498,10.0289,-2.7715,-0.0187,-0.0184,-0.9907,1.4956,-0.1772,-0.8633,62.5297,0,38.1,34.2,37.5,0,41.1,7.6667,0,0.8333,0.9833,0.9167,0.1667,-1.0167,0,1.6,1.0216,1.5706,-18.542,0.034,1,0,0,0,0.4686,0,0,0,0.0419,7.1613,1.8,0,0,1,0,0,0,0,0,0,0,0,0,0,5.24,2.8751,0,0,0,0,0,0,0,0,0,0,0,0,36.6875,0,0,0,-2.4512,-2.68,1.822,19364,0,0,338099.9688,49.5,27,156,40,14,21.2115,13.2,1,0,0,10.1041,5,0,0,-0.0008,55.2787,0,320.4348,3175700,10000,40.849,-80.3453,0.9087
0.5,4.5169,5,0,0,-0.0008,55.2787,0,320.4348,200,10.3,10000,40.84901876,-80.34534029,45.2893,11.2901,0,14.3422,-3.1713,10.018,-2.7758,-0.0179,-0.0188,-0.9912,1.499,-0.3186,-0.7817,62.087,0,38.1,34.2,37.5,0,41.1,7,0,0.9353,1.0706,1.0971,-0.2265,-1.2,0,1.6324,0.7699,1.966,-18.542,0.034,1,0,0,0,0.3333,0,0,0,0.0656,6.3441,1.7656,0,0,1,0,0,0,0,0,0,0,0,0,0,5.24,2.8751,0,0,0,0,0,0,0,0,0,0,0,0,36.6875,0,0,0,-2.4664,-2.68,1.85,19380,0,0,338099.9688,49.5,27,156,40,14,21.2596,13.2,1,0,0,10.1041,5,0,0,-0.0008,55.2787,0,320.4348,3175700,10000,40.849,-80.3453,1.0096
0.55,4.5169,5,0,0,-0.0008,55.2787,0,320.4348,200,10.3,10000,40.84901876,-80.34534029,45.2812,11.288,0,14.3367,-3.1607,9.9602,-2.7514,-0.0151,-0.0213,-0.9907,1.458,-0.3557,-0.7749,61.6393,0,38.1,34.2,37.5,0,41.1,7,0,0.8373,0.8745,1.2441,-0.5696,-1.2,0,1.6814,0.2845,2.0631,-18.542,0.034,1,0,0,0,0.0882,0,0,0,0.0118,6.8817,1.7118,0,0,1,0,0,0,0,0,0,0,0,0,0,5.24,2.8751,0,0,0,0,0,0,0,0,0,0,0,0,36.6875,0,0,0,-2.48,-2.68,1.85,19380,0,0,338099.9688,49.5,27,156,40,14,21.2845,13.1922,1,0,0,10.1041,5,0,0,-0.0008,55.2787,0,320.4348,3175700,10000,40.849,-80.3453,1.1106
0.6,4.5169,5,0,0,-0.0008,55.2787,0,320.4348,200,10.3,10000,40.84901876,-80.34534029,45.2812,11.288,0,14.3234,-3.1594,10.132,-2.7889,-0.0146,-0.0187,-0.9912,1.4502,-0.3142,-0.8032,61.1836,0,38.1,34.2,37.5,0,41.1,7,0,0.7392,0.6784,1.1784,-0.4873,-1.2,0,1.6696,-0.299,1.7931,-18.542,0.034,1,0,0,0,-0.251,0,0,0,0,7.4194,1.6161,0,0,1,0,0,0,0,0,0,0,0,0,0,5.24,2.8751,0,0,0,0,0,0,0,0,0,0,0,0,36.6875,0,0,0,-2.48,-2.68,1.85,19380,0,0,338099.9688,49.5,27,156,40,14,21.1874,13.1437,1,0,0,10.1041,5,0,0,-0.0008,55.2787,0,320.4348,3175700,10000,40.849,-80.3453,1.2116
0.65,4.5169,5,0,0,-0.0008,55.2787,0,320.4348,200,10.3,10000,40.84901876,-80.34534029,45.2812,11.288,0,14.3125,-3.1664,9.9648,-2.8039,-0.0119,-0.0177,-0.9912,1.4575,-0.1914,-0.9084,60.7279,0,38.1,34.2,37.5,0,41.1,7,0,0.6412,0.4824,0.9824,-0.1441,-1.2,0,1.6206,-0.9426,1.298,-18.542,0.034,1,0,0,0,-0.6431,0,0,0,0,7.957,1.5086,0,0,1,0,0,0,0,0,0,0,0,0,0,5.24,2.8773,0,0,0,0,0,0,0,0,0,0,0,0,36.6875,0,0,0,-2.48,-2.68,1.85,19380,0,0,338099.9688,49.5,27,156,40,14,21.1048,13.1,1,0,0,10.1041,5,0,0,-0.0008,55.2787,0,320.4348,3175700,10000,40.849,-80.3453,1.3125
0.7,4.5169,5,0,0,-0.0008,55.2787,0,320.4348,200,10.3,10000,40.84901876,-80.34534029,45.2812,11.288,0,14.3414,-3.1436,10.0219,-2.7861,-0.0128,-0.0208,-0.9917,1.458,-0.1603,-0.9277,60.3615,0,38.1,34.2,37.5,0,41.1,5.0098,0,0.4863,0.2294,0.701,0.2275,-0.9441,0,1.5716,-0.9941,0.8353,-18.542,0.034,1,0,0,0,-0.5941,0,0,0,-0.0989,4.043,1.5495,0,0,1,0,0,0,0,0,0,0,0,0,0,5.24,2.9052,0,0,0,0,0,0,0,0,0,0,0,0,36.6875,0,0,0,-2.48,-2.68,1.85,19380,0,0,338099.9688,49.5,27,156,40,14,21.1524,13.1,1,0,0,10.1041,5,0,0,-0.0008,55.2787,0,320.4348,3175700,10000,40.849,-80.3453,1.4135
0.75,4.5169,5,0,0,-0.0008,55.2787,0,320.4348,200,10.3,10000,40.84901876,-80.34534029,45.2812,11.288,0,14.3117,-3.1541,9.9828,-2.8023,-0.0148,-0.0208,-0.9922,1.4434,-0.3197,-0.8826,59.9969,0,38.1,34.2,37.5,0,41.1,1.5784,0,0.2902,-0.0647,0.3578,0.6196,-0.5029,0,1.5225,-0.651,0.3941,-18.542,0.034,1,0,0,0,-0.251,0,0,0,-0.1935,0.0645,1.5903,0,0,1,0,0,0,0,0,0,0,0,0,0,5.24,2.9275,0,0,0,0,0,0,0,0,0,0,0,0,36.6875,0,0,0,-2.48,-2.68,2.0507,19394,0,0,338099.9688,49.5,27,156,40,14,21.2,13.1,1,0,0,10.1041,5,0,0,-0.0008,55.2787,0,320.4348,3175700,10000,40.849,-80.3453,1.5144
0.8,4.5169,5,0,0,-0.0008,55.2787,0,320.4348,200,10.3,10000,40.84901876,-80.34534029,45.2812,11.288,0,14.3094,-3.1699,9.957,-2.7938,-0.0154,-0.0184,-0.9917,1.4434,-0.3376,-0.9355,59.7531,0,38.1,34.2,37.5,0,41.1,0.2647,0,0.1471,-0.1471,0.2,0.4824,-0.2206,0,1.5,-0.4176,0.2,-18.542,0.034,1,0,0,0,-0.1,0,0,0,-0.086,1.1398,1.429,0,0,1,0,0,0,0,0,0,0,0,0,0,5.24,2.8996,0,0,0,0,0,0,0,0,0,0,0,0,36.6875,0,0,0,-2.48,-2.68,2.2554,19408.2852,0,0,338099.9688,49.5,27,156,40,14,21.1519,13.1,1,0,0,10.1041,5,0,0,-0.0008,55.2787,0,320.4348,3175700,10000,40.849,-80.3453,1.6154
0.85,4.5169,5,0,0,-0.0008,55.2787,0,320.4348,200,10.3,10000,40.84901876,-80.34534029,45.2812,11.288,0,14.3008,-3.1305,9.9906,-2.7791,-0.0165,-0.0187,-0.9915,1.4409,-0.2679,-0.8855,59.5969,0,38.1,34.2,37.5,0,41.1,0.7549,0,0.049,-0.049,0.2,-0.1059,-0.0735,0,1.5,-0.2706,0.2,-18.542,0.034,1,0,0,0,-0.1,0,0,0,-0.0538,1.8925,1.3108,0,0,1,0,0,0,0,0,0,0,0,0,0,5.24,2.8785,0,0,0,0,0,0,0,0,0,0,0,0,36.6875,0,0,0,-2.4779,-2.6779,2.2465,19380.666,0,0,338099.9688,49.5,27,156,40,14,21.1038,13.1,1,0,0,10.1041,5,0,0,-0.0008,55.2787,0,320.4348,3175700,10000,40.849,-80.3453,1.7164
0.9,4.5169,5,0,0,-0.0008,55.2787,0,320.4348,200,10.3,10000,40.84901876,-80.34534029,45.2812,11.2874,0,14.3539,-3.1611,9.9898,-2.7934,-0.0166,-0.0203,-0.9922,1.4443,-0.3118,-0.8091,59.7523,0,38.1,34.2,37.5,0,41.1,1.7353,0,0.1225,0.1471,0.3471,-0.1794,-0.0245,0,1.549,-0.5314,0.1235,-18.542,0.034,1,0,0,0,-0.2529,0,0,0,-0.3226,1.3548,1.3645,0,0,1,0,0,0,0,0,0,0,0,0,0,5.24,2.9063,0,0,0,0,0,0,0,0,0,0,0,0,36.6875,0,0,0,-2.4627,-2.6627,2.2084,19347.334,0,0,338099.9688,49.5,27,156,40,14,21.1,13.1442,1,0,0,10.1041,5,0,0,-0.0008,55.2787,0,320.4348,3175700,10000,40.849,-80.3453,1.8173
0.95,4.5169,5,0,0,-0.0008,55.2787,0,320.4348,200,10.3,10000,40.84901876,-80.34534029,45.2812,11.2841,0,14.325,-3.1594,9.9961,-2.815,-0.0168,-0.0199,-0.9917,1.416,-0.2832,-0.8093,61.3279,0,38.1,34.2,37.5,0,41.1,3.2059,0,0.3676,0.4412,0.6412,0.2618,-0.0735,0,1.6471,-1.1686,-0.0235,-18.542,0.034,1,0,0,0,-0.5471,0,0,0,-0.4269,1,1.4548,0,0,1,0,0,0,0,0,0,0,0,0,0,5.2366,2.9264,0,0,0,0,0,0,0,0,0,0,0,0,36.6875,0,0,0,-2.4524,-2.6524,2.174,19317.7148,0,0,338099.9688,49.5,27,156,40,14,21.1,13.1923,1,0,0,10.1041,5,0,0,-0.0008,55.2787,0,320.4348,3175700,10000,40.849,-80.3453,1.9183
1,4.5169,5,0,0,-0.0008,55.2787,0,320.4348,200,10.3,10000,40.84901876,-80.34534029,45.2812,11.2807,0,14.3242,-3.1566,9.9773,-2.8014,-0.017,-0.0192,-0.9912,1.4082,-0.2313,-0.8174,62.9034,0,38.1,34.2,37.5,0,41.1,3.3235,0,0.6127,0.7804,0.9804,0.1843,-0.1451,0,1.6098,-1.7824,-0.2412,-18.542,0.034,1,0,0,0,-0.4647,0,0,0,-0.2118,1,1.6161,0,0,1,0,0,0,0,0,0,0,0,0,0,5.2125,2.8988,0,0,0,0,0,0,0,0,0,0,0,0,36.6875,0,0,0,-2.4674,-2.6674,2.1407,19289.1426,0,0,338099.9688,49.5,27,156,40,14,21.1404,13.2,1,0,0,10.1041,5,0,0,-0.0008,55.2787,0,320.4348,3175700,10000,40.849,-80.3453,2.0193
1.05,4.5169,5,0,0,-0.0008,55.2787,0,320.4348,200,10.3,10000,40.84901876,-80.34534029,45.2812,11.28,0,14.3313,-3.1508,9.9617,-2.799,-0.0163,-0.0202,-0.9915,1.4258,-0.2157,-0.8323,64.5094,0,38.1,34.2,37.5,0,41.1,1.8529,0,0.8578,1.1725,1.3725,-0.502,-0.2431,0,1.4137,-2.3706,-0.5353,-18.542,0.034,1,0,0,0,0.0255,0,0,0,0.0032,1,1.5968,0,0,1,0,0,0,0,0,0,0,0,0,0,5.1952,2.8751,0,0,0,0,0,0,0,0,0,0,0,0,36.6875,0,0,0,-2.48,-2.68,2.1527,19267.0469,0.022,0,338099.9688,49.5,27,156,40,14,21.1885,13.2,1,0,0,10.1041,5,0,0,-0.0008,55.2787,0,320.4348,3175700,10000,40.849,-80.3453,2.1202
1.1,4.5169,5,0,0,-0.0008,55.2787,0,320.4348,200,10.3,10000,40.84901876,-80.34534029,45.2812,11.28,0,14.3398,-3.1773,9.9547,-2.7826,-0.0157,-0.0206,-0.9927,1.4453,-0.2263,-0.8809,66.124,0,38.1,34.2,37.5,0,41.1,1,0,0.7529,1.1324,1.2294,-0.7559,-0.2382,0,1.3,-2.0529,-0.5275,-18.542,0.034,1,0,0,0,0.2569,0,0,0,0.2183,1,1.3817,0,0,1,0,0,0,0,0,0,0,0,0,0,5.2195,2.8751,0,0,0,0,0,0,0,0,0,0,0,0,36.6875,0,0,0,-2.48,-2.68,2.186,19248,0.0719,0,338099.9688,49.5,27,156,40,14,21.2369,13.2,1,0,0,10.1041,5,0,0,-0.0008,55.2787,0,320.4348,3175700,10000,40.849,-80.3453,2.2212
1.15,4.5169,5,0,0,-0.0008,55.2787,0,320.4348,200,10.3,10000,40.84901876,-80.34534029,45.2812,11.28,0,14.3445,-3.142,9.9664,-2.7949,-0.0146,-0.0188,-0.9917,1.4565,-0.2214,-0.9175,67.6891,0,38.1,34.2,37.5,0,41.1,1,0,0.1647,0.4951,0.3471,-0.4127,-0.0912,0,1.3,-0.5824,-0.1353,-18.542,0.034,1,0,0,0,0.1588,0,0,0,0.2333,1,1.3667,0,0,1,0,0,0,0,0,0,0,0,0,0,5.24,2.8751,0,0,0,0,0,0,0,0,0,0,0,0,36.6875,0,0,0,-2.48,-2.68,2.1227,19245.5234,0.1219,0,338099.9688,49.5,27,156,40,14,21.2854,13.2,1,0,0,10.1041,5,0,0,-0.0008,55.2787,0,320.4348,3175700,10000,40.849,-80.3453,2.3221
1.2,4.5169,5,0,0,-0.0008,55.2787,0,320.4348,200,10.3,10000,40.84901876,-80.34534029,45.2812,11.28,0,14.3406,-3.168,9.9602,-2.7965,-0.014,-0.0194,-0.9927,1.4688,-0.235,-0.9004,69.1734,0,38.1,34.2,37.5,0,41.1,1,0,-0.1441,0.1186,-0.1069,-0.1627,0.0373,0,1.3373,0.3583,0.1583,-18.542,0.034,1,0,0,0,0.1392,0,0,0,0.1258,1,1.4742,0,0,1,0,0,0,0,0,0,0,0,0,0,5.24,2.8751,0,0,0,0,0,0,0,0,0,0,0,0,36.6875,0,0,0,-2.48,-2.68,1.9893,19255.0469,0.1718,0,338099.9688,49.5,27,156,40,14,21.2667,13.1667,1,0,0,10.1041,5,0,0,-0.0008,55.2787,0,320.4348,3175700,10000,40.849,-80.3453,2.4231
1.25,4.5169,5,0,0,-0.0008,55.2787,0,320.4348,200,10.3,10000,40.84901876,-80.34534029,45.2812,11.28,0,14.3016,-3.1791,9.9703,-2.7963,-0.0121,-0.0202,-0.9927,1.4697,-0.2566,-0.8799,70.6578,0,38.1,34.2,37.5,0,41.1,1,0,0.0029,0.1676,0.1382,-0.0647,0.1353,0,1.4353,0.5039,0.3039,-18.542,0.034,1,0,0,0,0.2373,0,0,0,0.0183,1.4086,1.4183,0,0,1,0,0,0,0,0,0,0,0,0,0,5.2357,2.8701,0,0,0,0,0,0,0,0,0,0,0,0,36.6875,0,0,0,-2.477,-2.6729,1.8537,19271.4277,0.2218,0,338099.9688,49.5,27,156,40,14,21.219,13.119,1,0,0,10.1041,5,0,0,-0.0008,55.2787,0,320.4348,3175700,10000,40.849,-80.3453,2.5241
1.3,4.5169,5,0,0,-0.0008,55.2787,0,320.4348,200,10.3,10000,40.84901876,-80.34534029,45.2685,11.28,0,14.3211,-3.1594,9.982,-2.8092,-0.0105,-0.0206,-0.9917,1.4492,-0.2559,-0.8799,72.0656,0,38.1024,34.2,37.5,0,41.0928,1,0,0.1167,0.1667,0.2667,0.1333,0.15,0,1.5,0.4653,0.2822,-18.542,0.034,1,0,0,0,0.2294,0,0,0,-0.0892,1.9462,1.3108,0,0,1,0,0,0,0,0,0,0,0,0,0,5.2115,2.8426,0,0,0,0,0,0,0,0,0,0,0,0,36.6875,0,0,0,-2.4618,-2.6376,1.7156,19295.2383,0.2717,0,338099.9688,49.5,27,156,40,14,21.2288,13.1288,1,0,0,10.1041,5,0,0,-0.0008,55.2787,0,320.4348,3175700,10000,40.849,-80.3453,2.625
1.35,4.5169,5,0,0,-0.0008,55.2787,0,320.4348,200,10.3,10000,40.84901876,-80.34534029,45.2555,11.28,0,14.3398,-3.1648,9.9805,-2.8025,-0.0118,-0.0185,-0.9922,1.417,-0.2305,-0.8711,73.4719,0,38.1074,34.2,37.5,0,41.0778,1,0,0.1657,0.0686,0.1686,0.5255,0.0029,0,1.5,0.0693,-0.0644,-18.542,0.034,1,0,0,0,0.0333,0,0,0,0.0935,1.0323,1.3,0,0,1,0,0,0,0,0,0,0,0,0,0,5.1917,2.825,0,0,0,0,0,0,0,0,0,0,0,0,36.6875,0,0,0,-2.45,-2.6144,1.7071,19295.6602,0.3217,0,338099.9688,49.5,27,156,40,14,21.2769,13.1769,1,0,0,10.1041,5,0,0,-0.0008,55.2787,0,320.4348,3175700,10000,40.849,-80.3453,2.726
1.4,4.5169,5,0,0,-0.0008,55.2787,0,320.4348,200,10.3,10000,40.84901876,-80.34534029,45.25,11.2819,0,14.3289,-3.1689,9.9766,-2.7723,-0.0128,-0.017,-0.9922,1.4346,-0.2289,-0.856,74.8026,0,38.1124,34.2,37.5,0,41.0629,1,0,0.2882,0,0.1147,0.8,-0.0853,0,1.4559,-0.2466,-0.4087,-18.542,0.034,1,0,0,0,-0.1314,0,0,0,0.2957,0.0215,1.3022,0,0,1,0,0,0,0,0,0,0,0,0,0,5.1917,2.8528,0,0,0,0,0,0,0,0,0,0,0,0,36.6875,0,0,0,-2.45,-2.6344,1.9099,19257.9238,0.3716,0,338099.9688,49.5,27,156,40,14,21.275,13.175,1,0,0,10.1041,5,0,0,-0.0008,55.2787,0,320.4348,3175700,10000,40.849,-80.3453,2.827
1.45,4.5169,5,0,0,-0.0008,55.2787,0,320.4348,200,10.3,10000,40.84901876,-80.34534029,45.25,11.2853,0,14.3352,-3.1479,9.9398,-2.8033,-0.0135,-0.0185,-0.9917,1.4668,-0.2272,-0.8481,76.0786,0,38.1174,34.2,37.5,0,41.0479,1,0,0.5824,0,0.1637,0.8,-0.0363,0,1.3088,-0.3922,-0.7485,-18.542,0.034,1,0,0,0,-0.2294,0,0,0,0.1882,0.5591,1.3559,0,0,1,0,0,0,0,0,0,0,0,0,0,5.1917,2.8751,0,0,0,0,0,0,0,0,0,0,0,0,36.6875,0,0,0,-2.45,-2.65,2.0425,19228.75,0.4216,0,338099.9688,49.5,27,156,40,14,21.2269,13.1269,1,0,0,10.1041,5,0,0,-0.0008,55.2787,0,320.4348,3175700,10000,40.849,-80.3453,2.9279
1.5,4.5169,5,0,0,-0.0008,55.2787,0,320.4348,200,10.3,10000,40.84901876,-80.34534029,45.25,11.288,0,14.3211,-3.1707,9.9547,-2.8014,-0.0127,-0.0203,-0.9927,1.4492,-0.2253,-0.8486,77.3406,0,38.1224,34.2,37.5,0,41.0329,1,0,0.749,0.0255,0.2,0.7108,-0.0382,0,1.1745,-0.4743,-0.9485,-18.542,0.034,1,0,0,0,-0.2725,0,0,0,0.0516,1,1.3613,0,0,1,0,0,0,0,0,0,0,0,0,0,5.1917,2.8751,0,0,0,0,0,0,0,0,0,0,0,0,36.6875,0,0,0,-2.45,-2.65,1.9752,19223.9414,0.4715,0,338099.9688,49.5,27,156,40,14,21.2214,13.1,1,0,0,10.1041,5,0,0,-0.0008,55.2787,0,320.4348,3175700,10000,40.849,-80.3453,3.0289
1.55,4.5169,5,0,0,-0.0008,55.2787,0,320.4348,200,10.3,10000,40.84901876,-80.34534029,45.25,11.288,0,14.3289,-3.149,9.9461,-2.7924,-0.0124,-0.0188,-0.9929,1.4111,-0.2286,-0.8806,78.5385,0,38.1273,34.2,37.5,0,41.018,1,0,0.5529,0.1235,0.2,0.3676,-0.1853,0,1.0765,-0.3752,-0.7505,-18.542,0.034,1,0,0,0,-0.1745,0,0,0,-0.2172,1,1.1462,0,0,1,0,0,0,0,0,0,0,0,0,0,5.1971,2.8751,0,0,0,0,0,0,0,0,0,0,0,0,36.6875,0,0,0,-2.45,-2.6452,1.8969,19226.3711,0.5215,0,338099.9688,49.5,27,156,40,14,21.2699,13.1,1,0,0,10.1041,5,0,0,-0.0008,55.2787,0,320.4348,3175700,10000,40.849,-80.3453,3.1298
1.6,4.5169,5,0,0,-0.0008,55.2787,0,320.4348,200,10.3,10000,40.84901876,-80.34534029,45.25,11.288,0,14.3555,-3.1652,9.9836,-2.7951,-0.0134,-0.0181,-0.9917,1.4043,-0.2458,-0.8916,79.7365,0,38.1323,34.2,37.5,0,41.003,1,0,0.2922,0.1784,0.0814,0.0676,-0.2137,0,1.0431,-0.1718,-0.3903,-18.542,0.034,1,0,0,0,-0.0882,0,0,0,-0.3484,0.828,1.0516,0,0,1,0,0,0,0,0,0,0,0,0,0,5.2215,2.8751,0,0,0,0,0,0,0,0,0,0,0,0,36.6875,0,0,0,-2.45,-2.6249,1.7686,19261.7695,0.5714,0,338099.9688,49.5,27,156,40,14,21.3183,13.1183,1,0,0,10.1041,5,0,0,-0.0008,55.2787,0,320.4348,3175700,10000,40.849,-80.3453,3.2308
1.65,4.5169,5,0,0,-0.0008,55.2787,0,320.4348,200,10.3,10000,40.84901876,-80.34534029,45.25,11.2906,0,14.3164,-3.1379,9.9438,-2.799,-0.0144,-0.0198,-0.9919,1.4224,-0.2458,-0.8625,80.8734,0,38.1373,34.2,37.5,0,40.988,1,0,-0.198,0.0804,-0.4578,-0.0794,0.1784,0,1.2392,0.3621,0.4835,-18.542,0.034,1,0,0,0,-0.0392,0,0,0,-0.1871,0.2903,1.2129,0,0,1,0,0,0,0,0,0,0,0,0,0,5.24,2.8751,0,0,0,0,0,0,0,0,0,0,0,0,36.6875,0,0,0,-2.4447,-2.61,1.6403,19297.168,0.6214,0,338099.9688,49.5,27,156,40,14,21.3663,13.1663,1,0,0,10.1041,5,0,0,-0.0008,55.2787,0,320.4348,3175700,10000,40.849,-80.3453,3.3318
1.7,4.5169,5,0,0,-0.0008,55.2787,0,320.4348,200,10.3,10000,40.84901876,-80.34534029,45.25,11.2939,0,14.3461,-3.1557,9.9781,-2.7861,-0.0151,-0.0193,-0.9927,1.4307,-0.2308,-0.8643,81.9932,0,38.1423,34.2,37.5,0,40.9731,0.9118,0,-0.5294,0.0176,-0.8471,-0.1824,0.4735,0,1.3824,0.7465,1.0842,-18.542,0.034,1,0,0,0,-0.0098,0,0,0,0.0237,0,1.2753,0,0,1,0,0,0,0,0,0,0,0,0,0,5.24,2.8751,0,0,0,0,0,0,0,0,0,0,0,0,36.6875,0,0,0,-2.4245,-2.61,1.8976,19304.6934,0.6713,0,338099.9688,49.5,27,156,40,14,21.3856,13.2,1,0,0,10.1041,5,0,0,-0.0008,55.2787,0,320.4348,3175700,10000,40.849,-80.3453,3.4327
1.75,4.5169,5,0,0,-0.0008,55.2787,0,320.4348,200,10.3,10000,40.84901876,-80.34534029,45.25,11.296,0,14.3266,-3.1449,9.9703,-2.7846,-0.0157,-0.0186,-0.9917,1.437,-0.236,-0.8933,83.0734,0,38.1473,34.2,37.5,0,40.9581,0.4216,0,-0.1373,0.1157,-0.5529,-0.0843,0.3265,0,1.2843,0.4495,0.4406,-18.542,0.034,1,0,0,0,-0.0588,0,0,0,0.2925,0,1.2215,0,0,1,0,0,0,0,0,0,0,0,0,0,5.24,2.8751,0,0,0,0,0,0,0,0,0,0,0,0,36.6875,0,0,0,-2.41,-2.61,2.1884,19309.7969,0.7213,0,338099.9688,49.5,27,156,40,14,21.3375,13.2,1,0,0,10.1041,5,0,0,-0.0008,55.2787,0,320.4348,3175700,10000,40.849,-80.3453,3.5337
1.8,4.5169,5,0,0,-0.0008,55.2787,0,320.4348,200,10.3,10000,40.84901876,-80.34534029,45.25,11.296,0,14.3195,-3.1535,9.9617,-2.7957,-0.0148,-0.0205,-0.9927,1.4131,-0.2346,-0.9009,84.0891,0,38.1523,34.2,37.5,0,40.9431,0,0,0.2618,0.2892,-0.2245,-0.048,0.152,0,1.2,0.1137,-0.2412,-18.542,0.034,1,0,0,0,-0.1235,0,0,0,0.3032,0,1.2968,0,0,1,0,0,0,0,0,0,0,0,0,0,5.24,2.8751,0,0,0,0,0,0,0,0,0,0,0,0,36.6875,0,0,0,-2.41,-2.61,2.04,19250.5723,0.7712,0,338099.9688,49.5,27,156,40,14,21.2897,13.1897,1,0,0,10.1041,5,0,0,-0.0008,55.2787,0,320.4348,3175700,10000,40.849,-80.3453,3.6347
1.85,4.5169,5,0,0,-0.0008,55.2787,0,320.4348,200,10.3,10000,40.84901876,-80.34534029,45.25,11.296,0,14.3453,-3.1855,9.9836,-2.8043,-0.012,-0.0195,-0.9929,1.395,-0.2614,-0.9133,85.1047,0,38.1573,34.2,37.5,0,40.9281,0,0,0.7029,0.9265,0.3147,-0.3912,-0.1912,0,1.2,-0.4255,-1.1235,-18.542,0.034,1,0,0,0,-0.2706,0,0,0,0.1419,0,1.4581,0,0,1,0,0,0,0,0,0,0,0,0,0,5.24,2.8824,0,0,0,0,0,0,0,0,0,0,0,0,36.6875,0,0,0,-2.4199,-2.6256,1.8733,19188.666,0.8212,0,338099.9688,49.5,27,156,40,14,21.243,13.143,1,0,0,10.1041,5,0,0,-0.0008,55.2787,0,320.4348,3175700,10000,40.849,-80.3453,3.7356
1.9,4.5169,5,0,0,-0.0008,55.2787,0,320.4348,200,10.3,10000,40.84901876,-80.34534029,45.25,11.296,0,14.3633,-3.1725,9.9984,-2.799,-0.0105,-0.0185,-0.9922,1.3818,-0.2507,-0.9263,86.0693,0,38.1623,34.2,37.5,0,40.9132,0,0,1.0559,1.4265,0.7608,-0.6265,-0.4657,0,1.2,-0.8476,-1.801,-18.542,0.034,1,0,0,0,-0.3765,0,0,0,0.0204,0,1.4602,0,0,1,0,0,0,0,0,0,0,0,0,0,5.24,2.9102,0,0,0,0,0,0,0,0,0,0,0,0,36.6875,0,0,0,-2.4553,-2.6811,1.85,19184.0957,0.8711,0,338099.9688,49.5,27,156,40,14,21.2039,13.1,1,0,0,10.1041,5,0,0,-0.0008,55.2787,0,320.4348,3175700,10000,40.849,-80.3453,3.8366
1.95,4.5169,5,0,0,-0.0008,55.2787,0,320.4348,200,10.3,10000,40.84901876,-80.34534029,45.25,11.296,0,14.3164,-3.16,9.9602,-2.7918,-0.0114,-0.0192,-0.9924,1.3823,-0.2267,-0.9067,87.0328,0,38.1673,34.2,37.5,0,40.8982,0,0,0.6147,0.6912,0.3686,0.1088,-0.1225,0,1.2,-0.4107,-0.9757,-18.542,0.034,1,0,0,0,-0.1804,0,0,0,-0.0871,0,1.4065,0,0,1,0,0,0,0,0,0,0,0,0,0,5.24,2.9225,0,0,0,0,0,0,0,0,0,0,0,0,36.6875,0,0,0,-2.4755,-2.7094,1.85,19188.8574,0.9211,0,338099.9688,49.5,27,156,40,14,21.2529,13.1,1,0,0,10.1041,5,0,0,-0.0008,55.2787,0,320.4348,3175700,10000,40.849,-80.3453,3.9376
2,4.5169,5,0,0,-0.0008,55.2787,0,320.4348,200,10.3,10000,40.84901876,-80.34534029,45.25,11.296,0,14.3164,-3.1689,9.9648,-2.774,-0.0134,-0.0182,-0.9922,1.3936,-0.2377,-0.9102,87.4375,0,38.1723,34.2,37.5,0,40.8832,0,0,0.2088,0,0.0059,0.7794,0.1853,0,1.2029,-0.0059,-0.2178,-18.542,0.034,1,0,0,0,-0.0078,0,0,0,0.0892,0,1.2108,0,0,1,0,0,0,0,0,0,0,0,0,0,5.24,2.895,0,0,0,0,0,0,0,0,0,0,0,0,36.6875,0,0,0,-2.4603,-2.674,1.7993,19179.1426,0.971,0,338099.9688,49.5,27,156,40,14,21.2981,13.1019,1,0,0,10.1041,5,0,0,-0.0008,55.2787,0,320.4348,3175700,10000,40.849,-80.3453,4.0385
2.05,4.5169,5,0,0,-0.0008,55.2787,0,320.4348,200,10.3,10000,40.84901876,-80.34534029,45.25,11.296,0,14.3523,-3.1605,9.9758,-2.8063,-0.0127,-0.0183,-0.9917,1.4219,-0.2437,-0.9058,87.4375,0,38.1772,34.2,37.5,0,40.8683,0,0,0.3559,0,0.1039,0.4363,-0.0598,0,1.252,-0.105,-0.5149,-18.542,0.034,1,0,0,0,-0.1059,0,0,0,0.2925,0,1.0032,0,0,1,0,0,0,0,0,0,0,0,0,0,5.24,2.8751,0,0,0,0,0,0,0,0,0,0,0,0,36.6889,0,0,0,-2.45,-2.65,1.7327,19164.8574,0.979,0,338099.9688,49.5,27,156,40,14,21.2495,13.1505,1,0,0,10.1041,5,0,0,-0.0008,55.2787,0,320.4348,3175700,10000,40.849,-80.3453,4.1395
2.1,4.5169,5,0,0,-0.0008,55.2787,0,320.4348,200,10.3,10000,40.84901876,-80.34534029,45.25,11.296,0,14.3188,-3.1312,9.9602,-2.7844,-0.0122,-0.02,-0.9927,1.4404,-0.2634,-0.8652,87.3109,0,38.1822,34.2,37.5,0,40.8533,0,0,0.4961,0.0049,0.2078,0.0951,-0.3,0,1.2971,-0.2155,-0.8,-18.542,0.034,1,0,0,0,-0.1863,0,0,0,-0.0839,0,1.1645,0,0,1,0,0,0,0,0,0,0,0,0,0,5.24,2.8751,0,0,0,0,0,0,0,0,0,0,0,0,36.692,0,0,0,-2.45,-2.65,1.754,19178.8574,0.9289,0,338099.9688,49.5,27,156,40,14,21.201,13.199,1,0,0,10.1041,5,0,0,-0.0008,55.2787,0,320.4348,3175700,10000,40.849,-80.3453,4.2404
2.15,4.5169,5,0,0,-0.0008,55.2787,0,320.4348,200,10.3,10000,40.84901876,-80.34534029,45.25,11.296,0,14.3102,-3.1871,9.9422,-2.7953,-0.0121,-0.0206,-0.9929,1.4448,-0.2638,-0.8713,86.6078,0,38.1872,34.2,37.5,0,40.8383,0,0,0.3,0.25,0.6,-0.15,-0.3,0,1.15,-0.6039,-0.8,-18.542,0.034,1,0,0,0,0.1569,0,0,0,-0.3828,0,1.257,0,0,1,0,0,0,0,0,0,0,0,0,0,5.2339,2.8821,0,0,0,0,0,0,0,0,0,0,0,0,36.6951,0,0,0,-2.45,-2.6548,1.8207,19207.4277,0.8789,0,338099.9688,49.5,27,156,40,14,21.1533,13.1533,1,0,0,10.1041,5,0,0,-0.0008,55.2787,0,320.4348,3175700,10000,40.849,-80.3453,4.3414
2.2,4.5169,5,0,0,-0.0008,55.2787,0,320.4348,200,10.3,10000,40.84901876,-80.34534029,45.25,11.296,0,14.3508,-3.1709,9.9695,-2.774,-0.0123,-0.0185,-0.9922,1.4453,-0.2571,-0.856,85.9047,0,38.1922,34.2,37.5,0,40.8234,0,0,0.1039,0.4951,0.9922,-0.3951,-0.3,0,1.0029,-0.9922,-0.8,-18.542,0.034,1,0,0,0,0.5,0,0,0,-0.2753,0,0.9882,0,0,1,0,0,0,0,0,0,0,0,0,0,5.2136,2.9052,0,0,0,0,0,0,0,0,0,0,0,0,36.6982,0,0,0,-2.45,-2.67,1.7727,19230.666,0.8288,0,338099.9688,49.5,27,156,40,14,21.1057,13.1057,1,0,0,10.1041,5,0,0,-0.0008,55.2787,0,320.4348,3175700,10000,40.849,-80.3453,4.4424
2.25,4.5169,5,0,0,-0.0008,55.2787,0,320.4348,200,10.3,10000,40.84901876,-80.34534029,45.2398,11.2986,0,14.3625,-3.1697,9.9609,-2.8057,-0.0125,-0.0177,-0.9927,1.4429,-0.259,-0.8718,85.2219,0,38.1972,34.2,37.5,0,40.8084,0,0,0.2441,0.3559,0.7118,-0.3039,-0.2039,0,1,-0.6119,-0.7515,-18.542,0.034,1,0,0,0,0.2059,0,0,0,-0.2323,0,0.8161,0,0,1,0,0,0,0,0,0,0,0,0,0,5.1934,2.9284,0,0,0,0,0,0,0,0,0,0,0,0,36.7014,0,0,0,-2.4552,-2.668,1.6346,19249.7148,0.7788,0,338099.9688,49.5,27,156,40,14,21.1,13.1427,1,0,0,10.1041,5,0,0,-0.0008,55.2787,0,320.4348,3175700,10000,40.849,-80.3453,4.5433
2.3,4.5169,5,0,0,-0.0008,55.2787,0,320.4348,200,10.3,10000,40.84901876,-80.34534029,45.2268,11.3019,0,14.3398,-3.175,9.9797,-2.7906,-0.013,-0.0196,-0.9927,1.4385,-0.2427,-0.8613,84.5448,0,38.2,34.2088,37.5,0,40.8066,0,0,0.3912,0.2088,0.4176,-0.2059,-0.1059,0,1,-0.2158,-0.702,-18.542,0.034,1,0,0,0,-0.0882,0,0,0,-0.3398,0,0.8699,0,0,1,0,0,0,0,0,0,0,0,0,0,5.2066,2.9132,0,0,0,0,0,0,0,0,0,0,0,0,36.7045,0,0,0,-2.4703,-2.6326,1.56,19264.4238,0.7287,0,338099.9688,49.5,27,156,40,14,21.1,13.1913,1,0,0,10.1041,5,0,0,-0.0008,55.2787,0,320.4348,3175700,10000,40.849,-80.3453,4.6443
2.35,4.5169,5,0,0,-0.0008,55.2787,0,320.4348,200,10.3,10000,40.84901876,-80.34534029,45.2237,11.304,0,14.307,-3.1666,9.9516,-2.792,-0.0126,-0.0217,-0.9927,1.4004,-0.2384,-0.8716,83.8776,0,38.2,34.2287,37.5,0,40.8216,0,0,-0.1069,0.0157,-0.0608,-0.1078,0.0382,0,0.9539,0.1262,0.0922,-18.542,0.034,1,0,0,0,0.0882,0,0,0,-0.329,0,0.9237,0,0,1,0,0,0,0,0,0,0,0,0,0,5.2228,2.8947,0,0,0,0,0,0,0,0,0,0,0,0,36.7076,0,0,0,-2.4745,-2.61,1.56,19274.0391,0.6787,0,338099.9688,49.5,27,156,40,14,21.1774,13.2,1,0,0,10.1041,5,0,0,-0.0008,55.2787,0,320.4348,3175700,10000,40.849,-80.3453,4.7453
2.4,4.5169,5,0,0,-0.0008,55.2787,0,320.4348,200,10.3,10000,40.84901876,-80.34534029,45.2367,11.304,0,14.3297,-3.1721,9.9359,-2.7998,-0.012,-0.0189,-0.9927,1.3877,-0.2382,-0.9048,83.2266,0,38.2,34.2487,37.5,0,40.8365,0,0,-0.6461,-0.1804,-0.551,-0.0098,0.1853,0,0.9049,0.466,0.9175,-18.542,0.034,1,0,0,0,0.2843,0,0,0,-0.1677,0,0.9774,0,0,1,0,0,0,0,0,0,0,0,0,0,5.239,2.8762,0,0,0,0,0,0,0,0,0,0,0,0,36.7108,0,0,0,-2.4594,-2.61,1.5869,19263.8672,0.6286,0,338099.9688,49.5,27,156,40,14,21.2717,13.2,1,0,0,10.1041,5,0,0,-0.0008,55.2787,0,320.4348,3175700,10000,40.849,-80.3453,4.8462
2.45,4.5169,5,0,0,-0.0008,55.2787,0,320.4348,200,10.3,10000,40.84901876,-80.34534029,45.2497,11.304,0,14.3508,-3.1691,9.9539,-2.8105,-0.0121,-0.0172,-0.9919,1.4072,-0.2543,-0.9155,82.5755,0,38.2,34.2687,37.5,0,40.8515,0,0,-0.4353,-0.2441,-0.5118,-0.0882,0.1118,0,0.9441,0.4109,0.6436,-18.542,0.034,1,0,0,0,0.2098,0,0,0,-0.1,0,1,0,0,1,0,0,0,0,0,0,0,0,0,0,5.24,2.8751,0,0,0,0,0,0,0,0,0,0,0,0,36.7139,0,0,0,-2.45,-2.6176,1.6576,19221.416,0.5786,0,338099.9688,49.5,27,156,40,14,21.232,13.2,1,0,0,10.1041,5,0,0,-0.0008,55.2787,0,320.4348,3175700,10000,40.849,-80.3453,4.9472
2.5,4.5169,5,0,0,-0.0008,55.2787,0,320.4348,200,10.3,10000,40.84901876,-80.34534029,45.2372,11.304,0,14.3352,-3.1477,9.9766,-2.7996,-0.013,-0.0193,-0.9922,1.4092,-0.2411,-0.9136,81.95,0,38.2,34.2886,37.5,0,40.8665,0,0,-0.1412,-0.2931,-0.4137,-0.1863,0.0137,0,0.9931,0.3119,0.2475,-18.542,0.034,1,0,0,0,0.1118,0,0,0,-0.1,0,1,0,0,1,0,0,0,0,0,0,0,0,0,0,5.24,2.8751,0,0,0,0,0,0,0,0,0,0,0,0,36.717,0,0,0,-2.45,-2.6376,1.71,19190,0.5285,0,338099.9688,49.5,27,156,40,14,21.135,13.2,1,0,0,10.1041,5,0,0,-0.0008,55.2787,0,320.4348,3175700,10000,40.849,-80.3453,5.0481
2.55,4.5169,5,0,0,-0.0008,55.2787,0,320.4348,200,10.3,10000,40.84901876,-80.34534029,45.2242,11.304,0,14.3406,-3.1574,9.9258,-2.8004,-0.0138,-0.0206,-0.9922,1.4092,-0.2313,-0.9143,81.325,0,38.2,34.3086,37.5,0,40.8814,0,0,-0.0578,-0.1735,-0.1892,-0.1157,-0.0422,0,0.9157,0.0843,0.1137,-18.542,0.034,1,0,0,0,0.0137,0,0,0,-0.1,0,1,0,0,1,0,0,0,0,0,0,0,0,0,0,5.24,2.8751,0,0,0,0,0,0,0,0,0,0,0,0,36.7201,0,0,0,-2.4558,-2.6558,1.71,19190,0.4785,0,338131.0938,49.5,27,156,40,14,21.1308,13.2,1,0,0,10.1041,5,0,0,-0.0008,55.2787,0,320.4348,3175700,10000,40.849,-80.3453,5.1491
2.6,4.5169,5,0,0,-0.0008,55.2787,0,320.4348,200,10.3,10000,40.84901876,-80.34534029,45.2263,11.304,0,14.3422,-3.1781,9.9375,-2.79,-0.0133,-0.0199,-0.9922,1.3994,-0.2167,-0.9058,80.7,0,38.2,34.3285,37.5,0,40.8964,0,0,-0.0088,-0.0265,0.0559,-0.0176,-0.0912,0,0.8176,-0.1608,0.0157,-18.542,0.034,1,0,0,0,-0.0843,0,0,0,-0.1,0,1,0,0,1,0,0,0,0,0,0,0,0,0,0,5.24,2.8751,0,0,0,0,0,0,0,0,0,0,0,0,36.7233,0,0,0,-2.4709,-2.6709,1.7417,19196.0371,0.4284,0,338178.2812,49.5,27,156,40,14,21.1788,13.2,1,0,0,10.1041,5,0,0,-0.0008,55.2787,0,320.4348,3175700,10000,40.849,-80.3453,5.2501
2.65,4.5169,5,0,0,-0.0008,55.2787,0,320.4348,200,10.3,10000,40.84901876,-80.34534029,45.2393,11.304,0,14.3492,-3.159,9.9812,-2.8033,-0.0121,-0.0185,-0.9924,1.3965,-0.2258,-0.8699,80.075,0,38.2,34.3485,37.5,0,40.9114,0,0,0.0804,0.0804,0.0598,0.201,-0.1,0,0.9608,-0.1176,-0.1647,-18.542,0.034,1,0,0,0,-0.0588,0,0,0,-0.3312,0,0.9538,0,0,1,0,0,0,0,0,0,0,0,0,0,5.2164,2.8751,0,0,0,0,0,0,0,0,0,0,0,0,36.7264,0,0,0,-2.48,-2.68,1.9398,19233.7734,0.3784,0,338173.5,49.5,27,156,40,14,21.1728,13.1728,1,0,0,10.1041,5,0,0,-0.0008,55.2787,0,320.4348,3175700,10000,40.849,-80.3453,5.351
2.7,4.5169,5,0,0,-0.0008,55.2787,0,320.4348,200,10.3,10000,40.84901876,-80.34534029,45.2477,11.304,0,14.3687,-3.1578,9.9594,-2.7871,-0.0119,-0.0184,-0.9922,1.418,-0.2271,-0.8843,79.4641,0,38.2,34.3685,37.5,0,40.9263,0,0,0.1784,0.1784,0.0108,0.4461,-0.1,0,1.1569,-0.0196,-0.3608,-18.542,0.034,1,0,0,0,-0.0098,0,0,0,-0.6,0,0.9,0,0,1,0,0,0,0,0,0,0,0,0,0,5.1922,2.8751,0,0,0,0,0,0,0,0,0,0,0,0,36.7295,0,0,0,-2.48,-2.68,2.1287,19269.0469,0.3283,0,338124.4688,49.5,27,156,40,14,21.1243,13.1243,1,0,0,10.1041,5,0,0,-0.0008,55.2787,0,320.4348,3175700,10000,40.849,-80.3453,5.452
2.75,4.5169,5,0,0,-0.0008,55.2787,0,320.4348,200,10.3,10000,40.84901876,-80.34534029,45.2346,11.304,0,14.3391,-3.1727,9.982,-2.7859,-0.0129,-0.0198,-0.9917,1.4272,-0.2405,-0.9192,78.9172,0,38.2,34.3884,37.5,0,40.9413,0,0,0.2,0.2382,0.0765,0.1559,-0.1,0,1.2,-0.0784,-0.4392,-18.542,0.034,1,0,0,0,0,0,0,0,-0.3849,0,0.7925,0,0,1,0,0,0,0,0,0,0,0,0,0,5.1917,2.8751,0,0,0,0,0,0,0,0,0,0,0,0,36.7326,0,0,0,-2.4737,-2.6737,2.0953,19245.2383,0.2783,0,338099.9688,49.5,27,156,40,14,21.1481,13.1,1,0,0,10.1041,5,0,0,-0.0008,55.2787,0,320.4348,3175700,10000,40.849,-80.3453,5.553
2.8,4.5169,5,0,0,-0.0008,55.2787,0,320.4348,200,10.3,10000,40.84901876,-80.34534029,45.2216,11.304,0,14.3516,-3.1559,9.9656,-2.7934,-0.0145,-0.0188,-0.9922,1.4209,-0.2412,-0.9434,78.3703,0,38.2,34.4084,37.5,0,40.9563,0,0,0.2,0.2873,0.1745,-0.2853,-0.1,0,1.2,-0.1765,-0.4882,-18.542,0.034,1,0,0,0,0,0,0,0,-0.1849,0,0.7151,0,0,1,0,0,0,0,0,0,0,0,0,0,5.1917,2.8751,0,0,0,0,0,0,0,0,0,0,0,0,36.7357,0,0,0,-2.4587,-2.6587,2.062,19221.4277,0.2282,0,338099.9688,49.5,27,156,40,14,21.2442,13.1,1,0,0,10.1041,5,0,0,-0.0008,55.2787,0,320.4348,3175700,10000,40.849,-80.3453,5.6539
2.85,4.5169,5,0,0,-0.0008,55.2787,0,320.4348,200,10.3,10000,40.84901876,-80.34534029,45.2188,11.304,0,14.3367,-3.1785,9.9484,-2.7795,-0.014,-0.0181,-0.9922,1.415,-0.2307,-0.905,77.8438,0,38.2,34.4283,37.5,0,40.9713,0,0,0.3088,0.4088,0.4902,-0.3275,-0.1725,0,1.0912,-0.532,-0.7951,-18.542,0.034,1,0,0,0,-0.1863,0,0,0,-0.0774,0,0.8226,0,0,1,0,0,0,0,0,0,0,0,0,0,5.1917,2.8751,0,0,0,0,0,0,0,0,0,0,0,0,36.7389,0,0,0,-2.45,-2.6564,1.9973,19215.5234,0.1782,0,338099.9688,49.5,27,156,40,14,21.28,13.14,1,0,0,10.1041,5,0,0,-0.0008,55.2787,0,320.4348,3175700,10000,40.849,-80.3453,5.7549
2.9,4.5169,5,0,0,-0.0008,55.2787,0,320.4348,200,10.3,10000,40.84901876,-80.34534029,45.2188,11.304,0,14.3023,-3.1693,9.982,-2.8025,-0.0122,-0.0195,-0.9922,1.4229,-0.2383,-0.9023,77.3229,0,38.2,34.4483,37.5,0,40.9862,0,0,0.4559,0.5559,0.8824,-0.2294,-0.2706,0,0.9441,-0.9689,-1.1835,-18.542,0.034,1,0,0,0,-0.4314,0,0,0,0,0,0.8699,0,0,1,0,0,0,0,0,0,0,0,0,0,5.1917,2.8757,0,0,0,0,0,0,0,0,0,0,0,0,36.742,0,0,0,-2.45,-2.6715,1.9307,19210.7617,0.1281,0,338099.9688,49.5,27,156,40,14,21.2324,13.2352,1,0,0,10.1041,5,0,0,-0.0008,55.2787,0,320.4348,3175700,10000,40.849,-80.3453,5.8558
2.95,4.5169,5,0,0,-0.0008,55.2787,0,320.4348,200,10.3,10000,40.84901876,-80.34534029,45.2188,11.304,0,14.3047,-3.167,9.9344,-2.8152,-0.0121,-0.0189,-0.9929,1.4067,-0.2623,-0.9307,76.8318,0,38.2,34.4683,37.5,0,41.0012,0,0,0.3971,0.8059,0.7255,0.0402,-0.1971,0,0.9343,-0.7881,-1.0228,-18.542,0.034,1,0,0,0,-0.3588,0,0,0,0,0,0.7624,0,0,1,0,0,0,0,0,0,0,0,0,0,5.1917,2.9032,0,0,0,0,0,0,0,0,0,0,0,0,36.7451,0,0,0,-2.4567,-2.6889,1.92,19214,0.0781,0,338099.9688,49.5,27,156,40,14,21.1846,13.3,1,0,0,10.1041,5,0,0,-0.0008,55.2787,0,320.4348,3175700,10000,40.849,-80.3453,5.9568
3,4.5169,5,0,0,-0.0008,55.2787,0,320.4348,200,10.3,10000,40.84901876,-80.34534029,45.2188,11.304,0,14.3414,-3.1611,9.9484,-2.7965,-0.0128,-0.0184,-0.9927,1.3916,-0.2859,-0.9395,76.3891,0,38.2,34.4882,37.5,0,41.0162,0,0,0.25,1.1,0.3333,0.3833,-0.05,0,0.9833,-0.3426,-0.6267,-18.542,0.034,1,0,0,0,-0.1627,0,0,0,-0.0226,0,0.7452,0,0,1,0,0,0,0,0,0,0,0,0,0,5.1917,2.9297,0,0,0,0,0,0,0,0,0,0,0,0,36.7482,0,0,0,-2.4718,-2.7091,1.92,19218.7617,0.028,0,338099.9688,49.5,27,156,40,14,21.1365,13.3,1,0,0,10.1041,5,0,0,-0.0008,55.2787,0,320.4348,3175700,10000,40.849,-80.3453,6.0578
3.05,4.5169,5,0,0,-0.0008,55.2787,0,320.4348,200,10.3,10000,40.84901876,-80.34534029,45.2188,11.304,0,14.3359,-3.167,9.9609,-2.8006,-0.0142,-0.0176,-0.9922,1.4058,-0.2749,-0.9309,75.9464,0,38.2,34.5082,37.5,0,41.0311,0,0,0.2971,1.0059,0.2971,0.3382,0,0,1.0647,-0.3,-0.6667,-18.542,0.034,1,0,0,0,-0.1667,0,0,0,-0.0763,0,0.8527,0,0,1,0,0,0,0,0,0,0,0,0,0,5.1917,2.9019,0,0,0,0,0,0,0,0,0,0,0,0,36.75,0,0,0,-2.473,-2.6944,2.0882,19270.4551,0.022,0,338099.9688,49.5,27,156,40,14,21.1116,13.2767,1,0,0,10.1041,5,0,0,-0.0008,55.2787,0,320.4348,3175700,10000,40.849,-80.3453,6.1587
3.1,4.5169,5,0,0,-0.0008,55.2787,0,320.4348,200,10.3,10000,40.84901876,-80.34534029,45.2188,11.304,0,14.3164,-3.143,9.9555,-2.8068,-0.0129,-0.0193,-0.9922,1.4062,-0.2391,-0.9058,75.5547,0,38.2,34.5281,37.5,0,41.0461,0,0,0.4441,0.7118,0.4441,0.0931,0,0,1.1627,-0.4471,-0.9118,-18.542,0.034,1,0,0,0,-0.2647,0,0,0,-0.0699,0,0.9301,0,0,1,0,0,0,0,0,0,0,0,0,0,5.1917,2.8762,0,0,0,0,0,0,0,0,0,0,0,0,36.75,0,0,0,-2.4579,-2.6389,2.3155,19338.6367,0.072,0,338099.9688,49.5,27,156,40,14,21.1602,13.1796,1,0,0,10.1041,5,0,0,-0.0008,55.2787,0,320.4348,3175700,10000,40.849,-80.3453,6.2597
3.15,4.5169,5,0,0,-0.0008,55.2787,0,320.4348,200,10.3,10000,40.84901876,-80.34534029,45.2188,11.304,0,14.3633,-3.1557,9.9727,-2.793,-0.0118,-0.0197,-0.9922,1.3896,-0.2352,-0.9275,75.1641,0,38.2,34.5481,37.5,0,41.0611,0,0,0.2265,0.6608,0.4696,0.0912,0.0608,0,1.1088,-0.5,-0.6549,-18.542,0.034,1,0,0,0,-0.2686,0,0,0,-0.0161,0,0.9839,0,0,1,0,0,0,0,0,0,0,0,0,0,5.1917,2.9041,0,0,0,0,0,0,0,0,0,0,0,0,36.75,0,0,0,-2.4572,-2.6268,2.2302,19361.9805,0.122,0,338099.9688,49.5,27,156,40,14,21.2,13.1173,1,0,0,10.1041,5,0,0,-0.0008,55.2787,0,320.4348,3175700,10000,40.849,-80.3453,6.3607
3.2,4.5169,5,0,0,-0.0008,55.2787,0,320.4348,200,10.3,10000,40.84901876,-80.34534029,45.2188,11.304,0,14.3367,-3.1666,9.9609,-2.7873,-0.0128,-0.0194,-0.9927,1.3984,-0.2559,-0.9233,74.7885,0,38.2,34.5681,37.5,0,41.076,0,0,-0.2147,0.7588,0.4206,0.2382,0.1588,0,0.9618,-0.5,-0.1157,-18.542,0.034,1,0,0,0,-0.2196,0,0,0,-0.0376,0,1,0,0,1,0,0,0,0,0,0,0,0,0,0,5.1932,2.9303,0,0,0,0,0,0,0,0,0,0,0,0,36.75,0,0,0,-2.4722,-2.6618,1.8787,19347.1289,0.172,0,338099.9688,49.5,27,156,40,14,21.2,13.2135,1,0,0,10.1041,5,0,0,-0.0008,55.2787,0,320.4348,3175700,10000,40.849,-80.3453,6.4616
3.25,4.5169,5,0,0,-0.0008,55.2787,0,320.4348,200,10.3,10000,40.84901876,-80.34534029,45.2188,11.304,0,14.3086,-3.1654,9.9547,-2.8088,-0.0132,-0.0187,-0.9927,1.395,-0.2516,-0.9072,74.424,0,38.2,34.588,37.5,0,41.091,0,0,-0.1725,0.5725,0.3147,0.4422,0.1431,0,0.8716,-0.4118,-0.1353,-18.542,0.034,1,0,0,0,-0.2882,0,0,0,-0.0914,0,1,0,0,1,0,0,0,0,0,0,0,0,0,0,5.2173,2.9303,0,0,0,0,0,0,0,0,0,0,0,0,36.75,0,0,0,-2.48,-2.6897,1.7447,19342.4766,0.222,0,338099.9688,49.5,27,156,40,14,21.1952,13.2904,1,0,0,10.1041,5,0,0,-0.0008,55.2787,0,320.4348,3175700,10000,40.849,-80.3453,6.5626
3.3,4.5169,5,0,0,-0.0008,55.2787,0,320.4348,200,10.3,10000,40.84901876,-80.34534029,45.2188,11.304,0,14.3242,-3.1576,9.9367,-2.7811,-0.0125,-0.0191,-0.9927,1.3887,-0.2457,-0.8931,74.0594,0,38.2,34.612,37.502,0,41.1,0,0,0.2196,0.1804,0.1676,0.6873,0.0451,0,0.8225,-0.2647,-0.5275,-18.542,0.034,1,0,0,0,-0.4353,0,0,0,-0.1452,0,0.9548,0,0,1,0,0,0,0,0,0,0,0,0,0,5.24,2.9286,0,0,0,0,0,0,0,0,0,0,0,0,36.75,0,0,0,-2.48,-2.7099,1.8113,19347.2383,0.272,0,338099.9688,49.5,27,156,40,14,21.1471,13.1942,1,0,0,10.1041,5,0,0,-0.0008,55.2787,0,320.4348,3175700,10000,40.849,-80.3453,6.6635
3.35,4.5169,5,0,0,-0.0008,55.2787,0,320.4348,200,10.3,10000,40.84901876,-80.34534029,45.2188,11.304,0,14.3188,-3.173,9.9516,-2.8107,-0.0119,-0.0193,-0.9927,1.3774,-0.2482,-0.9028,73.6948,0,38.2,34.6419,37.507,0,41.1,0,0,0.1882,-0.0529,-0.0059,0.5882,0.0529,0,0.8265,-0.0913,-0.3738,-18.542,0.034,1,0,0,0,-0.3353,0,0,0,-0.1989,0,0.9011,0,0,1,0,0,0,0,0,0,0,0,0,0,5.24,2.9007,0,0,0,0,0,0,0,0,0,0,0,0,36.75,0,0,0,-2.4731,-2.7039,1.8361,19324.2461,0.322,0,338099.9688,49.5,27,156,40,14,21.101,13.1,1,0,0,10.1041,5,0,0,-0.0008,55.2787,0,320.4348,3175700,10000,40.849,-80.3453,6.7645
3.4,4.5169,5,0,0,-0.0008,55.2787,0,320.4348,200,10.3,10000,40.84901876,-80.34534029,45.2188,11.304,0,14.3602,-3.1623,9.9398,-2.8049,-0.0124,-0.019,-0.9922,1.3809,-0.2404,-0.9102,73.3302,0,38.2,34.6719,37.512,0,41.1,0,0,-0.2039,-0.151,-0.202,0.1961,0.151,0,0.8755,0.1029,0.2087,-18.542,0.034,1,0,0,0,-0.0412,0,0,0,-0.0946,0,0.8473,0,0,1,0,0,0,0,0,0,0,0,0,0,5.24,2.8751,0,0,0,0,0,0,0,0,0,0,0,0,36.75,0,0,0,-2.4594,-2.6718,1.8031,19262.9238,0.372,0,338099.9688,49.5,27,156,40,14,21.1486,13.1,1,0,0,10.1041,5,0,0,-0.0008,55.2787,0,320.4348,3175700,10000,40.849,-80.3453,6.8655
3.45,4.5169,5,0,0,-0.0008,55.2787,0,320.4348,200,10.3,10000,40.84901876,-80.34534029,45.2188,11.304,0,14.3352,-3.1566,9.9547,-2.8162,-0.013,-0.0189,-0.9919,1.3926,-0.2405,-0.9006,72.9859,0,38.2,34.7018,37.517,0,41.1,0,0,-0.2039,0.0451,-0.202,0.1225,-0.0206,0,0.9,0.102,0.2304,-18.542,0.034,1,0,0,0,0.0745,0,0,0,-0.0323,0,0.8065,0,0,1,0,0,0,0,0,0,0,0,0,0,5.24,2.8751,0,0,0,0,0,0,0,0,0,0,0,0,36.75,0,0,0,-2.45,-2.65,1.6886,19214.2852,0.422,0,338099.9688,49.5,27,156,40,14,21.1962,13.1,1,0,0,10.1041,5,0,0,-0.0008,55.2787,0,320.4348,3175700,10000,40.849,-80.3453,6.9664
3.5,4.5169,5,0,0,-0.0008,55.2787,0,320.4348,200,10.3,10000,40.84901876,-80.34534029,45.2188,11.304,0,14.3031,-3.1738,9.9305,-2.7812,-0.0126,-0.019,-0.9927,1.4121,-0.2419,-0.8892,72.6474,0,38.2,34.7317,37.522,0,41.1,0,0,0.1882,0.5353,-0.0059,0.3676,-0.4618,0,0.9,-0.0941,-0.3088,-18.542,0.034,1,0,0,0,0.0255,0,0,0,-0.3011,0,0.8602,0,0,1,0,0,0,0,0,0,0,0,0,0,5.24,2.8779,0,0,0,0,0,0,0,0,0,0,0,0,36.75,0,0,0,-2.45,-2.65,1.3838,19195.2383,0.472,0,338099.9688,49.5,27,156,40,14,21.2,13.1447,1,0,0,10.1041,5,0,0,-0.0008,55.2787,0,320.4348,3175700,10000,40.849,-80.3453,7.0674
3.55,4.5169,5,0,0,-0.0008,55.2787,0,320.4348,200,10.3,10000,40.84901876,-80.34534029,45.2188,11.304,0,14.3273,-3.1506,9.9547,-2.7949,-0.0121,-0.0195,-0.9927,1.396,-0.2472,-0.9224,72.299,0,38.2,34.7617,37.5269,0,41.1,0,0,0.3324,0.4618,0.1676,0.4098,-0.5647,0,0.9,-0.2683,-0.5772,-18.542,0.034,1,0,0,0,-0.0471,0,0,0,-0.4301,0,0.886,0,0,1,0,0,0,0,0,0,0,0,0,0,5.24,2.9054,0,0,0,0,0,0,0,0,0,0,0,0,36.75,0,0,0,-2.4548,-2.6613,1.2004,19178.1133,0.522,0,338099.9688,49.5,27,156,40,14,21.2,13.1932,1,0,0,10.1041,5,0,0,-0.0008,55.2787,0,320.4348,3175700,10000,40.849,-80.3453,7.1684
3.6,4.5169,5,0,0,-0.0008,55.2787,0,320.4348,200,10.3,10000,40.84901876,-80.34534029,45.2188,11.304,0,14.3359,-3.1648,9.95,-2.7992,-0.0129,-0.0191,-0.9927,1.4033,-0.261,-0.9292,71.9344,0,38.2,34.7916,37.5319,0,41.1,0,0,0.1853,-0.2735,0.3147,0.2137,-0.2706,0,0.9,-0.4168,-0.5277,-18.542,0.034,1,0,0,0,-0.1451,0,0,0,-0.1613,0,0.8323,0,0,1,0,0,0,0,0,0,0,0,0,0,5.2376,2.9275,0,0,0,0,0,0,0,0,0,0,0,0,36.75,0,0,0,-2.47,-2.6967,1.5023,19168.6797,0.572,0,338141.3125,49.5,27,156,40,14,21.2,13.2,1,0,0,10.1041,5,0,0,-0.0008,55.2787,0,320.4348,3175700,10000,40.849,-80.3453,7.2693
3.65,4.5169,5,0,0,-0.0008,55.2787,0,320.4348,200,10.3,10000,40.84901876,-80.34534029,45.2188,11.304,0,14.3141,-3.1598,9.9531,-2.79,-0.0133,-0.0192,-0.9927,1.4077,-0.2431,-0.9153,71.5698,0,38.2,34.8216,37.5369,0,41.1,0,0,0.2029,-0.4118,0.4618,0.0794,-0.1412,0,0.9,-0.5647,-0.651,-18.542,0.034,1,0,0,0,-0.2216,0,0,0,0.129,0,0.8,0,0,1,0,0,0,0,0,0,0,0,0,0,5.2132,2.8996,0,0,0,0,0,0,0,0,0,0,0,0,36.75,0,0,0,-2.48,-2.72,1.7827,19161.1426,0.622,0,338189.4062,49.5,27,156,40,14,21.2,13.2,1,0,0,10.1041,5,0,0,-0.0008,55.2787,0,320.4348,3175700,10000,40.849,-80.3453,7.3703
3.7,4.5169,5,0,0,-0.0008,55.2787,0,320.4348,200,10.3,10000,40.84901876,-80.34534029,45.2188,11.304,0,14.3414,-3.165,9.9609,-2.7938,-0.0125,-0.0189,-0.9917,1.4238,-0.2164,-0.9365,71.2818,0,38.2,34.8515,37.5419,0,41.1,0,0,0.448,0.2745,0.6088,0.0304,-0.2392,0,0.9,-0.7118,-0.9941,-18.542,0.034,1,0,0,0,-0.2706,0,0,0,0.4516,0,0.8,0,0,1,0,0,0,0,0,0,0,0,0,0,5.1944,2.8781,0,0,0,0,0,0,0,0,0,0,0,0,36.75,0,0,0,-2.48,-2.72,1.816,19175.4277,0.672,0,338199.9688,49.5,27,156,40,14,21.2,13.2,1,0,0,10.1041,5,0,0,-0.0008,55.2787,0,320.4348,3175700,10000,40.849,-80.3453,7.4713
3.75,4.5169,5,0,0,-0.0008,55.2787,0,320.4348,200,10.3,10000,40.84901876,-80.34534029,45.2188,11.304,0,14.3453,-3.1596,9.9664,-2.7877,-0.0118,-0.0209,-0.991,1.4517,-0.2195,-0.9351,70.9953,0,38.2,34.8814,37.5469,0,41.1,0,0,0.3392,0.3833,0.551,0,-0.151,0,0.9,-0.6431,-0.8078,-18.542,0.034,1,0,0,0,-0.2412,0,0,0,0.4258,0,0.8,0,0,1,0,0,0,0,0,0,0,0,0,0,5.2165,2.9034,0,0,0,0,0,0,0,0,0,0,0,0,36.75,0,0,0,-2.48,-2.72,1.8493,19189.7148,0.722,0,338199.9688,49.5,27,156,40,14,21.2,13.2,1,0,0,10.1041,5,0,0,-0.0008,55.2787,0,320.4348,3175700,10000,40.849,-80.3453,7.5722
3.8,4.5169,5,0,0,-0.0008,55.2787,0,320.4348,200,10.3,10000,40.84901876,-80.34534029,45.2188,11.304,0,14.3188,-3.1734,9.9508,-2.8074,-0.0121,-0.0202,-0.9937,1.4297,-0.2456,-0.9478,70.6937,0,38.2,34.9114,37.5519,0,41.1,0,0,-0.3471,-0.45,0.1588,0,0.2412,0,0.9,-0.251,0.1725,-18.542,0.034,1,0,0,0,-0.0941,0,0,0,0.1032,0,0.8,0,0,1,0,0,0,0,0,0,0,0,0,0,5.2387,2.9287,0,0,0,0,0,0,0,0,0,0,0,0,36.75,0,0,0,-2.48,-2.72,2.0488,19268.584,0.772,0,338166.9688,49.5,27,156,40,14,21.2,13.1663,1,0,0,10.1041,5,0,0,-0.0008,55.2787,0,320.4348,3175700,10000,40.849,-80.3453,7.6732
3.85,4.5169,5,0,0,-0.0008,55.2787,0,320.4348,200,10.3,10000,40.84901876,-80.34534029,45.2188,11.304,0,14.325,-3.1703,9.9859,-2.7887,-0.0122,-0.0174,-0.9949,1.4155,-0.2611,-0.9177,70.3812,0,38.2,34.9413,37.5569,0,41.1,0,0,-0.8,-0.9833,-0.25,-0.0667,0.6,0,0.8667,0.1573,0.8874,-18.542,0.034,1,0,0,0,0.0706,0,0,0,0.0731,0,0.9462,0,0,1,0,0,0,0,0,0,0,0,0,0,5.24,2.9085,0,0,0,0,0,0,0,0,0,0,0,0,36.75,0,0,0,-2.48,-2.7257,2.2516,19348.7734,0.822,0,338118.4062,49.5,27,156,40,14,21.2,13.1183,1,0,0,10.1041,5,0,0,-0.0008,55.2787,0,320.4348,3175700,10000,40.849,-80.3453,7.7741
3.9,4.5169,5,0,0,-0.0008,55.2787,0,320.4348,200,10.3,10000,40.84901876,-80.34534029,45.2188,11.304,0,14.2977,-3.1525,9.9289,-2.8172,-0.0121,-0.0177,-0.9932,1.4199,-0.2571,-0.9194,70.0734,0,38.2,34.9713,37.5619,0,41.1,0,0,-0.8,-0.9343,-0.6912,-0.2627,0.8941,0,0.7686,0.5942,1.1301,-18.542,0.034,1,0,0,0,0.2667,0,0,0,0.1806,0,1.1613,0,0,1,0,0,0,0,0,0,0,0,0,0,5.24,2.8853,0,0,0,0,0,0,0,0,0,0,0,0,36.75,0,0,0,-2.48,-2.761,2.1899,19310.8574,0.872,0,338099.9688,49.5,27,156,40,14,21.2,13.1,1,0,0,10.1041,5,0,0,-0.0008,55.2787,0,320.4348,3175700,10000,40.849,-80.3453,7.8751
3.95,4.5169,5,0,0,-0.0008,55.2787,0,320.4348,200,10.3,10000,40.84901876,-80.34534029,45.2188,11.304,0,14.3641,-3.1676,9.9898,-2.8068,-0.0131,-0.0203,-0.9917,1.4248,-0.2362,-0.9124,69.787,0,38.2,35.0012,37.5669,0,41.1,0,0,-0.6971,-0.7676,-0.9118,-0.2676,1.0118,0,0.7441,0.8109,1.1515,-18.542,0.034,1,0,0,0,0.3529,0,0,0,0.1118,0,0.9796,0,0,1,0,0,0,0,0,0,0,0,0,0,5.24,2.8906,0,0,0,0,0,0,0,0,0,0,0,0,36.75,0,0,0,-2.4836,-2.7864,2.0851,19253.7148,0.922,0,338099.9688,49.5,27,156,40,14,21.2,13.1,1,0,0,10.1041,5,0,0,-0.0008,55.2787,0,320.4348,3175700,10000,40.849,-80.3453,7.9761
4,4.5169,5,0,0,-0.0008,55.2787,0,320.4348,200,10.3,10000,40.84901876,-80.34534029,45.2188,11.304,0,14.2977,-3.1654,9.9586,-2.7904,-0.0127,-0.021,-0.9922,1.4023,-0.2203,-0.9019,69.5005,0,38.2,35.0311,37.5719,0,41.1,0,0,-0.3539,-0.3265,-0.6176,0.1735,0.7176,0,0.8912,0.5139,0.6564,-18.542,0.034,1,0,0,0,0.2059,0,0,0,0.0043,0,0.7108,0,0,1,0,0,0,0,0,0,0,0,0,0,5.24,2.9181,0,0,0,0,0,0,0,0,0,0,0,0,36.75,0,0,0,-2.5038,-2.7662,1.9587,19283.4277,0.972,0,338099.9688,49.5,27,156,40,14,21.2,13.126,1,0,0,10.1041,5,0,0,-0.0008,55.2787,0,320.4348,3175700,10000,40.849,-80.3453,8.077
4.05,4.5169,5,0,0,-0.0008,55.2787,0,320.4348,200,10.3,10000,40.84901876,-80.34534029,45.2188,11.304,0,14.3266,-3.1824,9.9609,-2.7961,-0.0123,-0.0187,-0.9924,1.3936,-0.2238,-0.9036,69.2141,0,38.2,35.0611,37.5768,0,41.1,0,0,-0.0873,-0.0127,-0.4127,0.4745,0.4363,0,0.949,0.3137,0.2725,-18.542,0.034,1,0,0,0,0.1137,0,0,0,0.1548,0,0.7516,0,0,1,0,0,0,0,0,0,0,0,0,0,5.24,2.9303,0,0,0,0,0,0,0,0,0,0,0,0,36.75,0,0,0,-2.5136,-2.7436,1.8253,19340.5723,0.978,0,338099.9688,49.5,27,156,40,14,21.2,13.174,1,0,0,10.1041,5,0,0,-0.0008,55.2787,0,320.4348,3175700,10000,40.849,-80.3453,8.178
4.1,4.5169,5,0,0,-0.0008,55.2787,0,320.4348,200,10.3,10000,40.84901876,-80.34534029,45.2188,11.304,0,14.3359,-3.1791,9.9078,-2.7881,-0.0117,-0.0167,-0.9907,1.4043,-0.244,-0.9077,68.9276,0,38.2,35.091,37.5818,0,41.1,0,0,-0.0382,-0.0618,-0.4618,0.3765,0.1912,0,0.7529,0.3627,0.1745,-18.542,0.034,1,0,0,0,0.1627,0,0,0,0.2839,0,0.8,0,0,1,0,0,0,0,0,0,0,0,0,0,5.24,2.9303,0,0,0,0,0,0,0,0,0,0,0,0,36.75,0,0,0,-2.4818,-2.7118,1.89,19382,0.9279,0,338099.9688,49.5,27,156,40,14,21.2219,13.1562,1,0,0,10.1041,5,0,0,-0.0008,55.2787,0,320.4348,3175700,10000,40.849,-80.3453,8.279
4.15,4.5169,5,0,0,-0.0008,55.2787,0,320.4348,200,10.3,10000,40.84901876,-80.34534029,45.2188,11.3027,0,14.3289,-3.16,9.9555,-2.8086,-0.0109,-0.0187,-0.9919,1.417,-0.2539,-0.9189,68.6312,0,38.2,35.121,37.5868,0,41.1,0.1078,0,0,-0.1216,-0.4569,0.2676,0.0216,0,0.6216,0.3529,0.0882,-18.542,0.034,1,0,0,0,0.1765,0,0,0,0.1226,0,0.8,0,0,1,0,0,0,0,0,0,0,0,0,0,5.24,2.9303,0,0,0,0,0,0,0,0,0,0,0,0,36.75,0,0,0,-2.45,-2.68,2.0567,19415.334,0.8779,0,338099.9688,49.5,27,156,40,14,21.2695,13.061,1,0,0,10.1041,5,0,0,-0.0008,55.2787,0,320.4348,3175700,10000,40.849,-80.3453,8.3799
4.2,4.5169,5,0,0,-0.0008,55.2787,0,320.4348,200,10.3,10000,40.84901876,-80.34534029,45.2188,11.2994,0,14.3188,-3.1766,9.9531,-2.7855,-0.0096,-0.0202,-0.9937,1.4053,-0.2573,-0.9492,68.3187,0,38.2,35.1509,37.5918,0,41.1,0.598,0,0,-0.2196,-0.2608,0.1206,0.1196,0,0.7196,0.1569,0.0392,-18.542,0.034,1,0,0,0,0.0784,0,0,0,-0.0387,0.129,0.8258,0,0,1,0,0,0,0,0,0,0,0,0,0,5.24,2.9303,0,0,0,0,0,0,0,0,0,0,0,0,36.75,0,0,0,-2.4652,-2.7356,2.0191,19369.2461,0.8278,0,338099.9688,49.5,27,156,40,14,21.3,13.0346,1,0,0,10.1041,5,0,0,-0.0008,55.2787,0,320.4348,3175700,10000,40.849,-80.3453,8.4809
4.25,4.5169,5,0,0,-0.0008,55.2787,0,320.4348,200,10.3,10000,40.84901876,-80.34534029,45.2188,11.2961,0,14.3508,-3.1795,9.9641,-2.8008,-0.0103,-0.0186,-0.9939,1.3901,-0.2694,-0.9563,68.0062,0,38.2,35.1808,37.5968,0,41.1,1,0,0.0176,-0.3176,-0.0382,0.0706,0.2441,0,0.8,0,0.0291,-18.542,0.034,1,0,0,0,0,0,0,0,-0.2,0.6667,0.9333,0,0,1,0,0,0,0,0,0,0,0,0,0,5.24,2.9303,0,0,0,0,0,0,0,0,0,0,0,0,36.75,0,0,0,-2.4804,-2.7893,1.8209,19260.7539,0.7778,0,338099.9688,49.5,27,156,40,14,21.3,13.1308,1,0,0,10.1041,5,0,0,-0.0008,55.2787,0,320.4348,3175700,10000,40.849,-80.3453,8.5818
4.3,4.5169,5,0,0,-0.0008,55.2787,0,320.4348,200,10.3,10000,40.84901876,-80.34534029,45.2188,11.296,0,14.3125,-3.1717,9.9289,-2.7967,-0.0111,-0.0174,-0.9927,1.4082,-0.2688,-0.9312,67.5917,0,38.2018,35.209,37.5982,0,41.0982,1,0,0.1157,-0.4157,0.3049,0.4627,0.4892,0,0.8,0,0.1748,-18.542,0.034,1,0,0,0,0,0,0,0,-0.1978,1,0.9591,0,0,1,0,0,0,0,0,0,0,0,0,0,5.24,2.9303,0,0,0,0,0,0,0,0,0,0,0,0,36.75,0,0,0,-2.5006,-2.7539,1.8719,19241.5098,0.7277,0,338099.9688,49.5,27,156,40,14,21.3,13.2,1,0,0,10.1041,5,0,0,-0.0008,55.2787,0,320.4348,3175700,10000,40.849,-80.3453,8.6828
4.35,4.5169,5,0,0,-0.0008,55.2787,0,320.4348,200,10.3,10000,40.84901876,-80.34534029,45.2188,11.296,0,14.3203,-3.2199,9.9516,-2.8154,-0.0109,-0.0189,-0.9929,1.4009,-0.2367,-0.9263,67.175,0,38.2068,35.2339,37.5932,0,41.0932,1.0686,0,0.1314,-0.5069,0.5314,0.7314,0.6863,0,0.8,0,0.3554,-18.542,0.034,1,0,0,0,0,0,0,0,0.071,1,0.8516,0,0,1,0,0,0,0,0,0,0,0,0,0,5.24,2.9136,0,0,0,0,0,0,0,0,0,0,0,0,36.75,0,0,0,-2.5192,-2.7192,2.2398,19335.8496,0.6777,0,338099.9688,49.5,27,156,40,14,21.3,13.2,1,0,0,10.1041,5,0,0,-0.0008,55.2787,0,320.4348,3175700,10000,40.849,-80.3453,8.7838
4.4,4.5169,5,0,0,-0.0008,55.2787,0,320.4348,200,10.3,10000,40.84901876,-80.34534029,45.2112,11.2979,0,14.3594,-3.1814,9.9609,-2.8051,-0.0092,-0.0197,-0.9941,1.3828,-0.2434,-0.916,66.7583,0,38.2118,35.2589,37.5882,0,41.0882,1.5588,0,-0.3588,-0.5559,0.0412,0.2412,0.5882,0,0.8,0,0.7515,-18.542,0.034,1,0,0,0,0,0,0,0,0.1441,1.2796,0.7441,0,0,1,0,0,0,0,0,0,0,0,0,0,5.24,2.8857,0,0,0,0,0,0,0,0,0,0,0,0,36.75,0,0,0,-2.4992,-2.6992,2.4138,19372.5723,0.6276,0,338099.9688,49.5,27,156,40,14,21.2903,13.1903,1,0,0,10.1041,5,0,0,-0.0008,55.2787,0,320.4348,3175700,10000,40.849,-80.3453,8.8847
4.45,4.5169,5,0,0,-0.0008,55.2787,0,320.4348,200,10.3,10000,40.84901876,-80.34534029,45.1982,11.3013,0,14.343,-3.1633,9.9836,-2.8178,-0.0087,-0.0184,-0.9929,1.3667,-0.2629,-0.9187,66.3417,0,38.2168,35.2838,37.5832,0,41.0832,2,0,-0.7657,-0.6147,-0.3804,-0.1853,0.4755,0,0.8,-0.0118,1.0353,-18.542,0.034,1,0,0,0,0,0,0,0,0.0366,1.8172,0.6366,0,0,1,0,0,0,0,0,0,0,0,0,0,5.24,2.8751,0,0,0,0,0,0,0,0,0,0,0,0,36.75,0,0,0,-2.48,-2.6813,2.1757,19286.8574,0.5776,0,338099.9688,49.5,27,156,40,14,21.2417,13.1417,1,0,0,10.1041,5,0,0,-0.0008,55.2787,0,320.4348,3175700,10000,40.849,-80.3453,8.9857
4.5,4.5169,5,0,0,-0.0008,55.2787,0,320.4348,200,10.3,10000,40.84901876,-80.34534029,45.1875,11.3034,0,14.3195,-3.1656,9.9391,-2.7875,-0.0107,-0.0173,-0.9917,1.3789,-0.2761,-0.8999,65.9391,0,38.2218,35.3088,37.5782,0,41.0782,2,0,-0.4225,-0.7618,-0.1843,-0.0382,0.2304,0,0.8,-0.1098,0.4961,-18.542,0.034,1,0,0,0,0,0,0,0,0,2,0.6355,0,0,1,0,0,0,0,0,0,0,0,0,0,5.24,2.8751,0,0,0,0,0,0,0,0,0,0,0,0,36.75,0,0,0,-2.48,-2.7134,1.9609,19230.377,0.5275,0,338099.9688,49.5,27,156,40,14,21.1933,13.1067,1,0,0,10.1041,5,0,0,-0.0008,55.2787,0,320.4348,3175700,10000,40.849,-80.3453,9.0867
4.55,4.5169,5,0,0,-0.0008,55.2787,0,320.4348,200,10.3,10000,40.84901876,-80.34534029,45.1875,11.3001,0,14.3477,-3.1645,9.968,-2.7824,-0.01,-0.0194,-0.9924,1.397,-0.2704,-0.8838,65.6005,0,38.2267,35.3337,37.5733,0,41.0733,2,0,-0.1206,-0.8765,-0.0147,0.1118,0.0147,0,0.7971,-0.2078,0.0392,-18.542,0.034,1,0,0,0,-0.0078,0,0,0,0,2,0.6892,0,0,1,0,0,0,0,0,0,0,0,0,0,5.24,2.8751,0,0,0,0,0,0,0,0,0,0,0,0,36.75,0,0,0,-2.48,-2.7455,1.8289,19277.5469,0.4775,0,338099.9688,49.5,27,156,40,14,21.1452,13.1548,1,0,0,10.1041,5,0,0,-0.0008,55.2787,0,320.4348,3175700,10000,40.849,-80.3453,9.1876
4.6,4.5169,5,0,0,-0.0008,55.2787,0,320.4348,200,10.3,10000,40.84901876,-80.34534029,45.1875,11.2967,0,14.2984,-3.1645,9.9602,-2.7938,-0.0087,-0.0207,-0.9932,1.4082,-0.2654,-0.9048,65.262,0,38.2317,35.3587,37.5683,0,41.0683,2,0,-0.4637,-0.4843,-0.2598,0.3078,0.2598,0,0.748,-0.3059,0.5294,-18.542,0.034,1,0,0,0,-0.1059,0,0,0,-0.043,2,0.786,0,0,1,0,0,0,0,0,0,0,0,0,0,5.24,2.8751,0,0,0,0,0,0,0,0,0,0,0,0,36.75,0,0,0,-2.4972,-2.75,1.73,19323.334,0.4274,0,338099.9688,49.5,27,156,40,14,21.1029,13.2,1,0,0,10.1041,5,0,0,-0.0008,55.2787,0,320.4348,3175700,10000,40.849,-80.3453,9.2886
4.65,3.9228,5,-0.6046,0.0986,-0.0145,34.5368,-207.4188,320.2325,200,8.8249,1,40.84901558,-80.34534536,45.1875,11.296,0,14.3336,-3.1582,9.9367,-2.7963,-0.0105,-0.018,-0.9937,1.4102,-0.2788,-0.9141,64.9234,0,38.2367,35.3836,37.5633,0,41.0633,2.0098,0,-0.7941,-0.098,-0.4971,0.5,0.4941,0,0.701,-0.3961,0.9843,-18.542,0.034,1,0,0,0,-0.198,0,0,0,-0.0968,2,0.8935,0,0,1,0,0,0,0,0,0,0,0,0,0,5.24,2.8929,0,0,0,0,0,0,0,0,0,0,0,0,36.75,0,0,0,-2.5172,-2.75,1.93,19356.666,0.3774,0,338099.9688,49.5,27,156,40,14,21.151,13.2,1,0,0,8.4833,5,-0.6078,0.1036,-0.0175,29.9837,-209.349,320.188,2629791.563,5975.6636,40.849,-80.3453,9.3808
4.7,3.0226,5,-1.5208,0.248,-0.0354,3.1097,-521.6898,319.9259,200,6.5899,1,40.84901076,-80.34535306,45.1875,11.296,0,14.3148,-3.1725,9.9305,-2.7838,-0.0107,-0.0173,-0.9922,1.415,-0.2583,-0.8945,64.5849,0,38.2417,35.4086,37.5583,0,41.0583,2.5,0,-0.5,0,-0.35,0.5,0.2,0,0.75,-0.298,0.5922,-18.542,0.034,1,0,0,0,-0.149,0,0,0,-0.1505,2.5054,0.9505,0,0,1,0,0,0,0,0,0,0,0,0,0,5.24,2.9208,0,0,0,0,0,0,0,0,0,0,0,0,36.75,0,0,0,-2.5026,-2.737,2.13,19390,0.3273,0,338099.9688,49.5,27,156,40,14,21.199,13.2,1,0,0,6.0757,5,-1.4987,0.2553,-0.0416,-7.6084,-516.2197,319.842,1818955.156,0.1378,40.849,-80.3454,9.4548
4.75,2.7037,5,-1.2506,0.1951,-0.0162,-8.639,-431.7583,320.4801,200,5.7013,1,40.84901091,-80.34534634,45.1875,11.296,0,14.3289,-3.1764,9.9703,-2.8037,-0.0104,-0.0189,-0.9929,1.4136,-0.2359,-0.9121,64.2562,0,38.2467,35.4335,37.5533,0,41.0533,2.9902,0,-0.2059,0.098,-0.2029,0.5,-0.0941,0,0.799,-0.2,0.2,-18.542,0.034,1,0,0,0,-0.1,0,0,0,-0.1871,3.086,0.9871,0,0,1,0,0,0,0,0,0,0,0,0,0,5.24,2.9119,0,0,0,0,0,0,0,0,0,0,0,0,36.75,0,0,0,-2.4824,-2.7218,2.0309,19309.8105,0.2773,0,338099.9688,49.5,27,156,40,14,21.2,13.2,1,0,0,6.0315,5,-0.9196,0.1428,-0.001,-9.2527,-317.1843,320.8601,1806710.156,0.3385,40.849,-80.3453,9.5172
4.8,2.6844,5,-0.3693,0.0378,0.0237,-10.2504,-133.6014,321.4778,200,5.5063,1,40.84901362,-80.34533219,45.1875,11.296,0,14.3055,-3.1779,9.9531,-2.792,-0.011,-0.0193,-0.9937,1.4053,-0.219,-0.8921,63.9437,0,38.2517,35.4585,37.5483,0,41.0483,4.4412,0,-0.4402,-0.3804,-0.152,0.1637,0.1882,0,0.7039,-0.4941,0.2,-18.542,0.034,1,0,0,0,-0.2471,0,0,0,-0.0258,4.1613,0.8258,0,0,1,0,0,0,0,0,0,0,0,0,0,5.24,2.884,0,0,0,0,0,0,0,0,0,0,0,0,36.75,0,0,0,-2.48,-2.72,1.9319,19229.623,0.2272,0,338099.9688,49.5,27,156,40,14,21.2,13.2,1,0,0,5.98,5,-0.36,0.0347,0.0382,-10.4432,-124.1093,321.7967,1788139.063,0.5325,40.849,-80.3453,9.5772
4.85,2.6233,5,0.0441,-0.025,0.0488,-6.5012,21.3784,321.5707,200,4.8823,3.143,40.84901453,-80.34532633,45.1875,11.296,0,14.3641,-3.1729,9.9531,-2.7979,-0.0122,-0.0181,-0.9924,1.4004,-0.2219,-0.885,63.6312,0,38.2567,35.4834,37.5433,0,41.0433,5.9118,0,-0.6853,-0.8706,-0.1029,-0.1794,0.4824,0,0.6059,-0.7882,0.2,-18.542,0.034,1,0,0,0,-0.3941,0,0,0,0.0409,4.6452,0.7355,0,0,1,0,0,0,0,0,0,0,0,0,0,5.24,2.8939,0,0,0,0,0,0,0,0,0,0,0,0,36.75,0,0,0,-2.48,-2.72,1.8904,19220,0.1772,0,338099.9688,49.5,27,156,40,14,21.2417,13.2,1,0,0,5.8122,5,-0.1047,-0.0046,0.0541,-4.5243,-24.4137,321.4574,1670457.344,0.6207,40.849,-80.3453,9.636
4.9,2.5408,5,0.2164,-0.0391,0.0663,0.0096,102.6002,321.1976,200,4.0373,1,40.84901452,-80.34532474,45.1875,11.296,0,14.3219,-3.1676,9.9211,-2.8037,-0.0138,-0.018,-0.9927,1.415,-0.2115,-0.8809,63.3443,0,38.2617,35.5084,37.5383,0,41.0383,3.2353,0,0.0833,-0.0245,0.4069,-0.0618,-0.1912,0,0.6461,0.4706,-0.1765,-18.542,0.034,1,0,0,0,0.2588,0,0,0,-0.228,3.0323,0.8968,0,0,1,0,0,0,0,0,0,0,0,0,0,5.24,2.9214,0,0,0,0,0,0,0,0,0,0,0,0,36.75,0,0,0,-2.4965,-2.7324,1.8567,19220,0.1271,0,338099.9688,49.5,27,156,40,14,21.2903,13.2,1,0,0,5.6444,5,0.1506,-0.0439,0.07,1.3946,75.282,321.1182,1552775.469,0.7089,40.849,-80.3453,9.6932
4.95,2.4318,5,0.1246,-0.0615,0.0128,-0.7743,57.2693,320.7338,200,3.915,1.0876,40.84901581,-80.34532631,45.1875,11.296,0,14.332,-3.1709,9.9242,-2.8086,-0.0166,-0.0192,-0.9917,1.4072,-0.2032,-0.887,63.0578,0,38.2667,35.5333,37.5333,0,41.0333,0.2941,0,0.9167,0.9069,0.9461,0.0853,-0.9265,0,0.6951,1.7941,-0.5686,-18.542,0.034,1,0,0,0,0.9451,0,0,0,-0.3226,2.3871,0.9806,0,0,1,0,0,0,0,0,0,0,0,0,0,5.24,2.9303,0,0,0,0,0,0,0,0,0,0,0,0,36.75,0,0,0,-2.5149,-2.7461,1.9292,19276.6035,0.0771,0,338099.9688,49.5,27,156,40,14,21.2223,13.1612,1,0,0,5.3848,5,0.0861,-0.1091,-0.0052,-1.6826,40.4691,320.6317,1454944.063,1.4439,40.849,-80.3453,9.7483
5,2.3091,5,-0.1033,-0.0884,-0.0772,-5.316,-53.2556,320.2234,200,4.165,1.1106,40.84901776,-80.34532952,45.1875,11.296,0,14.3273,-3.1879,9.9766,-2.7947,-0.02,-0.0204,-0.9922,1.3848,-0.2002,-0.8857,62.794,0,38.2717,35.5583,37.5283,0,41.0283,0.4412,0,0.3824,0.6471,0.5588,-0.0324,-0.3382,0,0.7441,0.8176,-0.3745,-18.542,0.034,1,0,0,0,0.4588,0,0,0,-0.1075,3.4624,0.9269,0,0,1,0,0,0,0,0,0,0,0,0,0,5.24,2.9303,0,0,0,0,0,0,0,0,0,0,0,0,36.75,0,0,0,-2.52,-2.75,2.0283,19347.3594,0.027,0,338099.9688,49.5,27,156,40,14,21.1252,13.1126,1,0,0,5.1104,5,-0.0304,-0.1785,-0.0953,-6.2243,-16.2405,320.1213,1360344.063,2.2842,40.849,-80.3453,9.8009
5.05,1.9958,5,0.2193,0.1317,-0.8327,21.716,-60.8588,318.9855,200,3.5834,1,40.84901363,-80.34533818,45.1875,11.296,0,14.3141,-3.1633,9.9406,-2.8365,-0.0203,-0.0206,-0.9902,1.395,-0.2111,-0.8618,62.5466,0,38.2766,35.5832,37.5234,0,41.0234,0.9314,0,-0.3039,0.2549,0.0686,-0.1794,0.3971,0,0.7931,-0.3588,-0.1294,-18.542,0.034,1,0,0,0,-0.1294,0,0,0,0,3.1935,0.9,0,0,1,0,0,0,0,0,0,0,0,0,0,5.24,2.9303,0,0,0,0,0,0,0,0,0,0,0,0,36.75,0,0,0,-2.52,-2.75,2.0827,19350.5723,0.023,0,338099.9688,49.5,27,156,40,14,21.1356,13.1,1,0,0,4.2022,5,0.3132,0.0322,-1.1458,34.0581,-16.1599,318.5258,1274378.047,3.6926,40.849,-80.3453,9.8469
