Time,GPS Speed,GPS Nsat,GPS LatAcc,GPS LonAcc,GPS Slope,GPS Heading,GPS Gyro,GPS Altitude,GPS PosAccuracy,GPS SpdAccuracy,GPS Radius,GPS Latitude,GPS Longitude,LoggerTemp,External Voltage,RPM,F Heave,F Roll,R Heave,R Roll,InlineAcc,LateralAcc,VerticalAcc,RollRate,PitchRate,YawRate,Luminosity,Inverter Enable,D4 Gate Driver B,D3 Module C,D1 Control Board,D4 Torque Shudde,D3 Motor Tempera,D2 Motor Speed,D4 DC Bus Curren,D1 Phase A Curre,D3 Phase C Curre,D2 Phase B Curre,D4 VBC Vq Voltag,D3 VAB Vd Voltag,D2 Output Voltag,D1 DC Bus Voltag,D4 Iq,D3 Id,D2 Flux Feedback,D1 Flux Command,D7 Direction Com,D6 Inverter Enab,D7 BMS Torque Li,D1 Commanded Tor,D2 Torque Feedba,D4 Iq Command,D3 Id Command,Fast Torque Comm,Fast Torque Feed,Fast Motor Speed,Fast DC Bus Volt,Inverter Enable dup 1,Speed Mode Enabl,Direction Comman,Torque Command,Inverter Dischar,Torque Limit Com,Current,Voltage,RDTActive,D3 HV Input Current,SteeringWheelPos,BrakeLightActive,TSAL Active,BrakeSensor1,BrakeSensor2,SpeedFrontRight,SpeedRearLeft,SpeedFrontLeft,SpeedRearRight,SpeedFrontRightMph,SpeedRearLeftMph,SpeedFrontLeftMph,SpeedRearRightMph,FrontLeft,FrontRight,RearLeft,RearRight,Temperature,CoolantTemp,MotorPumpStatus1,MotorPumpStatus2,APPS1,APPS2,LV Current,LV Voltage,HeartBit,Pack Current,Pack Inst Voltag,Pack SOC,Average Temperat,Pack DCL,High Temperature,Low Temperature,High Cell Voltag,Low Cell Voltage,MultiPurpose  01,Maximum Pack Vol,Minimum Cell Vol,GPS Speed,GPS Nsat,GPS LatAcc,GPS LonAcc,GPS Slope,GPS Heading,GPS Gyro,GPS Altitude,GPS PosAccuracy,GPS Radius,GPS Latitude,GPS Longitude,Distance on GPS Speed
0,9.1394,3,0,0,0.0494,-120.7952,0,331.0641,200,10000,10000,40.84836807,-80.34420897,40.8125,11.264,0,13.8359,-3.6191,10.0859,-2.7617,-0.0044,-0.0316,-0.9946,1.1963,-0.1517,-0.4297,62.8125,0,35.7,32.9,35.2,0,40.2,0,0,0.2,0,0,0.3,-0.3,0,0.5,0,-0.2,-18.542,0.034,1,0,0,0,0,0,0,0,0.3,0,0.6,0,0,1,0,0,0,0,0,0,0,0,0,0,5.9226,3.7714,0,0,0,0,0,0,0,0,0,0,0,0,36.75,0,0,0,-2.06,-2.65,1.63,18930,0,0,333999.9688,43,28,150,42,15,0.9,18.4,1,0,0,20.4443,3,0,0,0.0494,-120.7952,0,331.0641,9903500,10000,40.8484,-80.3442,0
0.05,9.1394,3,0,0,0.0494,-120.7952,0,331.0641,200,10000,10000,40.84836807,-80.34420897,40.8125,11.264,0,13.8359,-3.6191,10.0859,-2.7617,-0.0046,-0.0324,-0.9949,1.1963,-0.1517,-0.4297,62.8125,0,35.7,32.9,35.2,0,40.2,0,0,0.2,0,0,0.3,-0.3,0,0.5,0,-0.2,-18.542,0.034,1,0,0,0,0,0,0,0,0.3,0,0.6,0,0,1,0,0,0,0,0,0,0,0,0,0,5.9226,3.7714,0,0,0,0,0,0,0,0,0,0,0,0,36.75,0,0,0,-2.06,-2.65,1.63,18930,0,0,333999.9688,43,28,150,42,15,0.9,18.4,1,0,0,20.4443,3,0,0,0.0494,-120.7952,0,331.0641,9903500,10000,40.8484,-80.3442,0.2043
0.1,9.1394,3,0,0,0.0494,-120.7952,0,331.0641,200,10000,10000,40.84836807,-80.34420897,40.8125,11.264,0,13.8359,-3.6191,10.0859,-2.7617,-0.0042,-0.0313,-0.9946,1.1963,-0.1517,-0.4297,62.8125,0,35.7,32.9,35.2,0,40.2,0,0,0.2,0,0,0.3,-0.3,0,0.5,0,-0.2,-18.542,0.034,1,0,0,0,0,0,0,0,0.3,0,0.6,0,0,1,0,0,0,0,0,0,0,0,0,0,5.9226,3.7714,0,0,0,0,0,0,0,0,0,0,0,0,36.75,0,0,0,-2.06,-2.65,1.63,18930,0,0,333999.9688,43,28,150,42,15,0.9,18.4,1,0,0,20.4443,3,0,0,0.0494,-120.7952,0,331.0641,9903500,10000,40.8484,-80.3442,0.4086
0.15,9.1394,3,0,0,0.0494,-120.7952,0,331.0641,200,10000,10000,40.84836807,-80.34420897,40.8125,11.264,0,13.8359,-3.6191,10.0859,-2.7617,-0.0046,-0.0305,-0.9941,1.1963,-0.1517,-0.4297,62.8125,0,35.7,32.9,35.2,0,40.2,0,0,0.2,0,0,0.3,-0.3,0,0.5,0,-0.2,-18.542,0.034,1,0,0,0,0,0,0,0,0.3,0,0.6,0,0,1,0,0,0,0,0,0,0,0,0,0,5.9226,3.7714,0,0,0,0,0,0,0,0,0,0,0,0,36.75,0,0,0,-2.06,-2.65,1.63,18930,0,0,333999.9688,43,28,150,42,15,0.9,18.4,1,0,0,20.4443,3,0,0,0.0494,-120.7952,0,331.0641,9903500,10000,40.8484,-80.3442,0.6129
0.2,9.1394,3,0,0,0.0494,-120.7952,0,331.0641,200,10000,10000,40.84836807,-80.34420897,40.8125,11.264,0,13.8359,-3.6191,10.0859,-2.7617,-0.0053,-0.0308,-0.9951,1.1963,-0.1517,-0.4297,62.8125,0,35.7,32.9,35.2,0,40.2,0,0,0.2,0,0,0.3,-0.3,0,0.5,0,-0.2,-18.542,0.034,1,0,0,0,0,0,0,0,0.3,0,0.6,0,0,1,0,0,0,0,0,0,0,0,0,0,5.9226,3.7714,0,0,0,0,0,0,0,0,0,0,0,0,36.75,0,0,0,-2.06,-2.65,1.63,18930,0,0,333999.9688,43,28,150,42,15,0.9,18.4,1,0,0,20.4443,3,0,0,0.0494,-120.7952,0,331.0641,9903500,10000,40.8484,-80.3442,0.8171
0.25,9.1394,3,0,0,0.0494,-120.7952,0,331.0641,200,10000,10000,40.84836807,-80.34420897,40.8125,11.264,0,13.8359,-3.6191,10.0859,-2.7617,-0.0044,-0.0313,-0.9944,1.2173,-0.1375,-0.4463,62.8125,0,35.7,32.9,35.2,0,40.2,0,0,0.2,0,0,0.3,-0.3,0,0.5,0,-0.2,-18.542,0.034,1,0,0,0,0,0,0,0,0.3,0,0.6,0,0,1,0,0,0,0,0,0,0,0,0,0,5.9226,3.7714,0,0,0,0,0,0,0,0,0,0,0,0,36.75,0,0,0,-2.06,-2.65,1.63,18930,0,0,333999.9688,43,28,150,42,15,0.9,18.4,1,0,0,20.4443,3,0,0,0.0494,-120.7952,0,331.0641,9903500,10000,40.8484,-80.3442,1.0214
0.3,9.1394,3,0,0,0.0494,-120.7952,0,331.0641,200,10000,10000,40.84836807,-80.34420897,40.8125,11.264,0,13.8359,-3.6191,10.0859,-2.7617,-0.0034,-0.0311,-0.9941,1.2119,-0.1338,-0.4539,62.8125,0,35.7,32.9,35.2,0,40.2,0,0,0.2,0,0,0.3,-0.3,0,0.5,0,-0.2,-18.542,0.034,1,0,0,0,0,0,0,0,0.3,0,0.6,0,0,1,0,0,0,0,0,0,0,0,0,0,5.9226,3.7714,0,0,0,0,0,0,0,0,0,0,0,0,36.75,0,0,0,-2.06,-2.65,1.63,18930,0,0,333999.9688,43,28,150,42,15,0.9,18.4,1,0,0,20.4443,3,0,0,0.0494,-120.7952,0,331.0641,9903500,10000,40.8484,-80.3442,1.2257
0.35,9.1394,3,0,0,0.0494,-120.7952,0,331.0641,200,10000,10000,40.84836807,-80.34420897,40.8125,11.264,0,13.8359,-3.6191,10.0859,-2.7617,-0.0038,-0.0308,-0.9951,1.1992,-0.1016,-0.4506,62.8125,0,35.7,32.9,35.2,0,40.2,0,0,0.2,0,0,0.3,-0.3,0,0.5,0,-0.2,-18.542,0.034,1,0,0,0,0,0,0,0,0.3,0,0.6,0,0,1,0,0,0,0,0,0,0,0,0,0,5.9226,3.7714,0,0,0,0,0,0,0,0,0,0,0,0,36.75,0,0,0,-2.06,-2.65,1.63,18930,0,0,333999.9688,43,28,150,42,15,0.9,18.4,1,0,0,20.4443,3,0,0,0.0494,-120.7952,0,331.0641,9903500,10000,40.8484,-80.3442,1.43
0.4,9.1394,3,0,0,0.0494,-120.7952,0,331.0641,200,10000,10000,40.84836807,-80.34420897,40.8125,11.264,0,13.8438,-3.6012,10.0609,-2.7637,-0.0038,-0.0312,-0.9951,1.1992,-0.0758,-0.4312,62.3672,0,35.7,32.9,35.2,0,40.2,0,0,0.2157,0.0157,-0.0078,0.2843,-0.2843,0,0.5,-0.0078,-0.2235,-18.542,0.034,1,0,0,0,0,0,0,0,0.3,0,0.6,0,0,1,0,0,0,0,0,0,0,0,0,0,5.9226,3.7714,0,0,0,0,0,0,0,0,0,0,0,0,36.75,0,0,0,-2.0578,-2.6517,1.63,18930,0,0,333999.9688,43,28,150,42,15,0.9,18.3724,1,0,0,20.4443,3,0,0,0.0494,-120.7952,0,331.0641,9903500,10000,40.8484,-80.3442,1.6343
0.45,9.1394,3,0,0,0.0494,-120.7952,0,331.0641,200,10000,10000,40.84836807,-80.34420897,40.8125,11.264,0,13.8391,-3.5848,10.0844,-2.7938,-0.0036,-0.0314,-0.9956,1.1958,-0.0964,-0.4266,61.625,0,35.7,32.9,35.2,0,40.2,0,0,0.3137,0.1137,-0.0569,0.1863,-0.1863,0,0.5,-0.0569,-0.3706,-18.542,0.034,1,0,0,0,0,0,0,0,0.3258,0,0.5871,0,0,1,0,0,0,0,0,0,0,0,0,0,5.9364,3.7576,0,0,0,0,0,0,0,0,0,0,0,0,36.75,0,0,0,-2.0394,-2.6654,1.6227,18918.5312,0,0,333999.9688,43,28,150,42,15,0.9,18.3248,1,0,0,20.4443,3,0,0,0.0494,-120.7952,0,331.0641,9903500,10000,40.8484,-80.3442,1.8386
0.5,9.1394,3,0,0,0.0494,-120.7952,0,331.0641,200,10000,10000,40.84836807,-80.34420897,40.8125,11.264,0,13.8344,-3.5863,10.0797,-2.8,-0.004,-0.0312,-0.9961,1.2061,-0.1349,-0.467,60.8958,0,35.7,32.9,35.2,0,40.2,0,0,0.3941,0.1941,-0.0765,0.0529,-0.1118,0,0.5059,-0.1353,-0.5,-18.542,0.034,1,0,0,0,-0.0206,0,0,0,0.4333,0,0.5333,0,0,1,0,0,0,0,0,0,0,0,0,0,5.964,3.7301,0,0,0,0,0,0,0,0,0,0,0,0,36.75,0,0,0,-2.0211,-2.6792,1.6061,18892.4648,0,0,333999.9688,43,28,150,42,15,0.9231,18.3,1,0,0,20.4443,3,0,0,0.0494,-120.7952,0,331.0641,9903500,10000,40.8484,-80.3442,2.0428
0.55,9.1394,3,0,0,0.0494,-120.7952,0,331.0641,200,10000,10000,40.84836807,-80.34420897,40.8125,11.264,0,13.8234,-3.6078,10.1016,-2.7832,-0.0051,-0.0312,-0.9961,1.2139,-0.1614,-0.5149,60.2188,0,35.7,32.9,35.2,0,40.2,0,0,0.3451,0.1451,0.1196,-0.3392,-0.2098,0,0.5549,-0.4294,-0.5,-18.542,0.034,1,0,0,0,-0.1676,0,0,0,0.3774,0,0.5204,0,0,1,0,0,0,0,0,0,0,0,0,0,5.9777,3.7163,0,0,0,0,0,0,0,0,0,0,0,0,36.75,0,0,0,-2.0371,-2.68,1.5895,18866.3984,0.004,0,333999.9688,43,28,150,42,15,0.9712,18.3,1,0,0,20.4443,3,0,0,0.0494,-120.7952,0,331.0641,9903500,10000,40.8484,-80.3442,2.2471
0.6,9.1394,3,0,0,0.0494,-120.7952,0,331.0641,200,10000,10000,40.84836807,-80.34420897,40.8125,11.264,0,13.8453,-3.5797,10.1281,-2.7805,-0.0057,-0.0315,-0.9961,1.1943,-0.1482,-0.4819,59.5417,0,35.7,32.9,35.2,0,40.2,0,0,0.2882,0.0569,0.2882,-0.6725,-0.2922,0,0.6078,-0.6725,-0.4804,-18.542,0.034,1,0,0,0,-0.2853,0,0,0,0.0548,0,0.5742,0,0,1,0,0,0,0,0,0,0,0,0,0,5.9777,3.7163,0,0,0,0,0,0,0,0,0,0,0,0,36.75,0,0,0,-2.0553,-2.68,1.5729,18840.332,0.054,0,333999.9688,43,28,150,42,15,1,18.3,1,0,0,20.4443,3,0,0,0.0494,-120.7952,0,331.0641,9903500,10000,40.8484,-80.3442,2.4514
0.65,9.1394,3,0,0,0.0494,-120.7952,0,331.0641,200,10000,10000,40.84836807,-80.34420897,40.8125,11.2613,0,13.8375,-3.5934,10.0609,-2.782,-0.0058,-0.0319,-0.9956,1.2036,-0.15,-0.4572,58.8958,0,35.7,32.9,35.2,0,40.2,0,0,0.1412,-0.4824,0.1412,-0.3294,-0.1941,0,0.7059,-0.3294,-0.2353,-18.542,0.034,1,0,0,0,-0.1382,0,0,0,0.0957,0,0.628,0,0,1,0,0,0,0,0,0,0,0,0,0,5.9777,3.7239,0,0,0,0,0,0,0,0,0,0,0,0,36.75,0,0,0,-2.06,-2.68,1.56,18825.1895,0.104,0,333999.9688,43,28,150,42,15,1,18.3,1,0,0,20.4443,3,0,0,0.0494,-120.7952,0,331.0641,9903500,10000,40.8484,-80.3442,2.6557
0.7,9.1394,3,0,0,0.0494,-120.7952,0,331.0641,200,10000,10000,40.84836807,-80.34420897,40.8125,11.258,0,13.8422,-3.5934,10.0234,-2.7828,-0.0055,-0.0308,-0.9951,1.1914,-0.1469,-0.4917,58.2578,0,35.7,32.9,35.2,0,40.2,0,0,-0.0098,-0.9765,-0.0098,0.0157,-0.098,0,0.7961,0.0118,0.0098,-18.542,0.034,1,0,0,0,0.0088,0,0,0,0.472,0,0.6817,0,0,1,0,0,0,0,0,0,0,0,0,0,5.9777,3.7384,0,0,0,0,0,0,0,0,0,0,0,0,36.75,0,0,0,-2.06,-2.68,1.56,18848.7734,0.154,0,333999.9688,43,28,150,42,15,0.9845,18.2845,1,0,0,20.4443,3,0,0,0.0494,-120.7952,0,331.0641,9903500,10000,40.8484,-80.3442,2.86
0.75,9.1394,3,0,0,0.0494,-120.7952,0,331.0641,200,10000,10000,40.84836807,-80.34420897,40.8125,11.2573,0,13.8344,-3.6066,10.0672,-2.7805,-0.0047,-0.0302,-0.9951,1.1836,-0.1157,-0.4851,57.6406,0,35.7,32.9,35.2,0,40.2,0,0,-0.2549,-0.3882,-0.2549,0.4078,-0.049,0,0.698,0.3059,0.2549,-18.542,0.034,1,0,0,0,0.1559,0,0,0,0.2097,0,0.5935,0,0,1,0,0,0,0,0,0,0,0,0,0,5.9777,3.753,0,0,0,0,0,0,0,0,0,0,0,0,36.75,0,0,0,-2.06,-2.68,1.5738,18869.5234,0.204,0,333999.9688,43,28,150,42,15,0.9359,18.2359,1,0,0,20.4443,3,0,0,0.0494,-120.7952,0,331.0641,9903500,10000,40.8484,-80.3442,3.0643
0.8,9.1394,3,0,0,0.0494,-120.7952,0,331.0641,200,10000,10000,40.84836807,-80.34420897,40.8125,11.2607,0,13.8156,-3.6059,10.1156,-2.7832,-0.0039,-0.0311,-0.9956,1.1875,-0.0788,-0.4736,57.0547,0,35.7,32.9007,35.2007,0,40.2014,0,0,-0.5,0.2,-0.5,0.8,0,0,0.6,0.6,0.5,-18.542,0.034,1,0,0,0,0.3,0,0,0,-0.3817,0,0.4323,0,0,1,0,0,0,0,0,0,0,0,0,0,5.9777,3.7676,0,0,0,0,0,0,0,0,0,0,0,0,36.75,0,0,0,-2.06,-2.68,1.7119,18864.7617,0.254,0,333999.9688,43,28,150,42,15,0.9124,18.2124,1,0,0,20.4443,3,0,0,0.0494,-120.7952,0,331.0641,9903500,10000,40.8484,-80.3442,3.2686
0.85,9.1394,3,0,0,0.0494,-120.7952,0,331.0641,200,10000,10000,40.84836807,-80.34420897,40.8125,11.264,0,13.8484,-3.6184,10.0531,-2.7762,-0.0049,-0.0322,-0.9954,1.1802,-0.0808,-0.4788,56.4688,0,35.7,32.9057,35.2057,0,40.2114,0,0,-0.6471,0.102,-0.3529,0.4569,0.098,0,0.6,0.551,0.598,-18.542,0.034,1,0,0,0,0.3,0,0,0,-0.2849,0,0.572,0,0,1,0,0,0,0,0,0,0,0,0,0,5.9777,3.7527,0,0,0,0,0,0,0,0,0,0,0,0,36.75,0,0,0,-2.0446,-2.6685,1.85,18860,0.304,0,333999.9688,43,28,150,42,15,0.96,18.26,1,0,0,20.4443,3,0,0,0.0494,-120.7952,0,331.0641,9903500,10000,40.8484,-80.3442,3.4728
0.9,9.1394,3,0,0,0.0494,-120.7952,0,331.0641,200,10000,10000,40.84836807,-80.34420897,40.8125,11.264,0,13.8391,-3.6023,10.0984,-2.7816,-0.0061,-0.0318,-0.9951,1.1875,-0.0833,-0.467,55.9479,0,35.7,32.9107,35.2107,0,40.2214,0,0,-0.7941,0.0039,-0.2059,0.1137,0.1961,0,0.6,0.502,0.6961,-18.542,0.034,1,0,0,0,0.3,0,0,0,-0.0161,0,0.7871,0,0,1,0,0,0,0,0,0,0,0,0,0,5.9777,3.7274,0,0,0,0,0,0,0,0,0,0,0,0,36.75,0,0,0,-2.0244,-2.6533,1.85,18950.4766,0.354,0,333999.9688,43,28,150,42,15,0.9923,18.2923,1,0,0,20.4443,3,0,0,0.0494,-120.7952,0,331.0641,9903500,10000,40.8484,-80.3442,3.6771
0.95,9.1394,3,0,0,0.0494,-120.7952,0,331.0641,200,10000,10000,40.84836807,-80.34420897,40.8125,11.264,0,13.825,-3.5984,10.0328,-2.7863,-0.0057,-0.0311,-0.9956,1.1938,-0.0986,-0.4639,55.4271,0,35.7,32.9157,35.2157,0,40.2313,0,0,-0.4235,0.0471,-0.1529,-0.0412,-0.0353,0,0.6941,0.3118,0.3706,-18.542,0.034,1,0,0,0,0.1559,0,0,0,-0.2022,0,0.8,0,0,1,0,0,0,0,0,0,0,0,0,0,5.9777,3.7317,0,0,0,0,0,0,0,0,0,0,0,0,36.75,0,0,0,-2.02,-2.6776,1.85,19040.9531,0.404,0,333999.9688,43,28,150,42,15,0.9442,18.2442,1,0,0,20.4443,3,0,0,0.0494,-120.7952,0,331.0641,9903500,10000,40.8484,-80.3442,3.8814
1,9.1394,3,0,0,0.0494,-120.7952,0,331.0641,200,10000,10000,40.84836807,-80.34420897,40.8125,11.264,0,13.8438,-3.5875,10.1062,-2.7703,-0.0048,-0.0313,-0.9951,1.2021,-0.1323,-0.4592,54.9531,0,35.7,32.9207,35.2207,0,40.2413,0,0,-0.0314,0.0961,-0.1039,-0.1882,-0.2804,0,0.7922,0.1157,0.0275,-18.542,0.034,1,0,0,0,0.0088,0,0,0,-0.4,0,0.8,0,0,1,0,0,0,0,0,0,0,0,0,0,5.9777,3.7593,0,0,0,0,0,0,0,0,0,0,0,0,36.75,0,0,0,-2.02,-2.7129,1.7557,18981.4277,0.454,0,333999.9688,43,28,150,42,15,0.9,18.2038,1,0,0,20.4443,3,0,0,0.0494,-120.7952,0,331.0641,9903500,10000,40.8484,-80.3442,4.0857
1.05,9.1394,3,0,0,0.0494,-120.7952,0,331.0641,200,10000,10000,40.84836807,-80.34420897,40.8125,11.264,0,13.8156,-3.6156,10.1266,-2.7719,-0.0058,-0.0317,-0.9951,1.2095,-0.1373,-0.4845,54.5104,0,35.7,32.9257,35.2257,0,40.2513,0,0,-0.2706,-0.1255,-0.1902,0.0255,0.0608,0,0.7098,0.3255,0.2255,-18.542,0.034,1,0,0,0,0.1382,0,0,0,-0.4,0,0.8,0,0,1,0,0,0,0,0,0,0,0,0,0,5.9777,3.7714,0,0,0,0,0,0,0,0,0,0,0,0,36.75,0,0,0,-2.02,-2.692,1.651,18905.2383,0.504,0,333999.9688,43,28,150,42,15,0.9,18.2519,1,0,0,20.4443,3,0,0,0.0494,-120.7952,0,331.0641,9903500,10000,40.8484,-80.3442,4.29
1.1,9.1394,3,0,0,0.0494,-120.7952,0,331.0641,200,10000,10000,40.84836807,-80.34420897,40.8099,11.264,0,13.8391,-3.6082,10.0562,-2.7871,-0.006,-0.0316,-0.9946,1.1816,-0.0994,-0.4956,54.1068,0,35.7,32.9306,35.2306,0,40.2613,0,0,-0.5647,-0.3706,-0.2882,0.2706,0.4529,0,0.6118,0.5706,0.4706,-18.542,0.034,1,0,0,0,0.2853,0,0,0,-0.3527,0,0.7645,0,0,1,0,0,0,0,0,0,0,0,0,0,5.9777,3.7714,0,0,0,0,0,0,0,0,0,0,0,0,36.75,0,0,0,-2.02,-2.657,1.6866,18935.2832,0.554,0,333999.9688,43,28,150,42,15,0.9,18.3,1,0,0,20.4443,3,0,0,0.0494,-120.7952,0,331.0641,9903500,10000,40.8484,-80.3442,4.4943
1.15,9.1394,3,0,0,0.0494,-120.7952,0,331.0641,200,10000,10000,40.84836807,-80.34420897,40.7969,11.264,0,13.8156,-3.6094,10.0906,-2.7785,-0.0052,-0.0316,-0.9941,1.1865,-0.0831,-0.5039,53.8594,0,35.7,32.9356,35.2356,0,40.2713,0,0,0.0902,0.2039,0.1745,0.0843,0.0686,0,0.5569,-0.349,-0.2765,-18.542,0.034,1,0,0,0,0.5206,0,0,0,-0.1376,0,0.6032,0,0,1,0,0,0,0,0,0,0,0,0,0,5.9616,3.7714,0,0,0,0,0,0,0,0,0,0,0,0,36.75,0,0,0,-2.02,-2.662,1.7574,18991.8867,0.604,0,333999.9688,43,28,150,42,15,0.9,18.3,1,0,0,20.4443,3,0,0,0.0494,-120.7952,0,331.0641,9903500,10000,40.8484,-80.3442,4.6985
1.2,9.1394,3,0,0,0.0494,-120.7952,0,331.0641,200,10000,10000,40.84836807,-80.34420897,40.7839,11.264,0,13.8344,-3.6031,10.0734,-2.777,-0.0046,-0.0318,-0.9951,1.2119,-0.0961,-0.4695,53.612,0,35.7,32.9406,35.2406,0,40.2812,0,0,0.8745,0.8902,0.7137,-0.1608,-0.4216,0,0.5078,-1.4275,-1.1588,-18.542,0.034,1,0,0,0,0.7657,0,0,0,-0.0194,0,0.5194,0,0,1,0,0,0,0,0,0,0,0,0,0,5.9337,3.7714,0,0,0,0,0,0,0,0,0,0,0,0,36.75,0,0,0,-2.02,-2.677,1.8027,18977.6191,0.654,0,333999.9688,43,28,150,42,15,0.9,18.3,1,0,0,20.4443,3,0,0,0.0494,-120.7952,0,331.0641,9903500,10000,40.8484,-80.3442,4.9028
1.25,9.1394,3,0,0,0.0494,-120.7952,0,331.0641,200,10000,10000,40.84836807,-80.34420897,40.7812,11.264,0,13.8141,-3.593,10.0453,-2.7816,-0.0055,-0.0319,-0.9956,1.207,-0.1208,-0.4556,53.3958,0,35.7,32.9456,35.2456,0,40.2912,0,0,0.5882,0.5882,0.3059,0.2941,-0.3353,0,0.5412,-0.7765,-0.7647,-18.542,0.034,1,0,0,0,0.5892,0,0,0,-0.0731,0,0.5731,0,0,1,0,0,0,0,0,0,0,0,0,0,5.9226,3.7859,0,0,0,0,0,0,0,0,0,0,0,0,36.75,0,0,0,-2.0347,-2.6947,1.836,18930,0.704,0,333999.9688,43,28,150,41.5577,15,0.9,18.3,1,0,0,20.4443,3,0,0,0.0494,-120.7952,0,331.0641,9903500,10000,40.8484,-80.3442,5.1071
1.3,9.1394,3,0,0,0.0494,-120.7952,0,331.0641,200,10000,10000,40.84836807,-80.34420897,40.7812,11.264,0,13.8344,-3.6203,10.0797,-2.8,-0.0067,-0.0308,-0.9956,1.1787,-0.1222,-0.4585,53.1875,0,35.7,32.9506,35.2506,0,40.3012,0,0,0.098,0.098,-0.2824,0.8824,-0.1392,0,0.5902,0.2039,-0.1275,-18.542,0.034,1,0,0,0,0.3441,0,0,0,-0.1538,0,0.6538,0,0,1,0,0,0,0,0,0,0,0,0,0,5.9226,3.81,0,0,0,0,0,0,0,0,0,0,0,0,36.75,0,0,0,-2.053,-2.713,1.7898,18904.5273,0.754,0,333999.9688,43,28,150,41.0769,15,0.9,18.3,1,0,0,20.4443,3,0,0,0.0494,-120.7952,0,331.0641,9903500,10000,40.8484,-80.3442,5.3114
1.35,9.1394,3,0,0,0.0494,-120.7952,0,331.0641,200,10000,10000,40.84836807,-80.34420897,40.7812,11.264,0,13.8266,-3.607,10.1141,-2.8008,-0.0067,-0.0299,-0.9954,1.1836,-0.086,-0.4269,52.9844,0,35.7,32.9556,35.2556,0,40.3112,0,0,-0.3529,-0.1961,-0.6353,0.6471,0.2922,0,0.5608,0.8314,0.3922,-18.542,0.034,1,0,0,0,0.501,0,0,0,-0.2613,0,0.7613,0,0,1,0,0,0,0,0,0,0,0,0,0,5.9378,3.7912,0,0,0,0,0,0,0,0,0,0,0,0,36.75,0,0,0,-2.06,-2.6981,1.686,18895.0938,0.804,0,333999.9688,43,28,150,41,15,0.9402,18.3,1,0,0,20.4443,3,0,0,0.0494,-120.7952,0,331.0641,9903500,10000,40.8484,-80.3442,5.5157
1.4,9.1394,3,0,0,0.0494,-120.7952,0,331.0641,200,10000,10000,40.84836807,-80.34420897,40.7812,11.264,0,13.8625,-3.6035,10.1172,-2.7922,-0.0059,-0.031,-0.9946,1.1895,-0.071,-0.4248,52.7891,0,35.7,32.9606,35.2606,0,40.3212,0,0,-0.7941,-0.4412,-0.9294,0.2059,0.7824,0,0.5118,1.3706,0.8824,-18.542,0.034,1,0,0,0,0.7461,0,0,0,-0.3688,0,0.7312,0,0,1,0,0,0,0,0,0,0,0,0,0,5.9631,3.7438,0,0,0,0,0,0,0,0,0,0,0,0,36.75,0,0,0,-2.06,-2.6627,1.7089,18896.5723,0.854,0,333999.9688,43,28,150,41,15,0.9869,18.3,1,0,0,20.4443,3,0,0,0.0494,-120.7952,0,331.0641,9903500,10000,40.8484,-80.3442,5.72
1.45,9.1394,3,0,0,0.0494,-120.7952,0,331.0641,200,10000,10000,40.84836807,-80.34420897,40.7812,11.264,0,13.8328,-3.5836,10.0797,-2.7988,-0.0053,-0.0318,-0.9954,1.189,-0.092,-0.4596,52.5938,0,35.7,32.9656,35.2656,0,40.3311,0,0,-0.8255,-0.7235,-0.8137,0.249,0.5647,0,0.5745,1.2392,0.8882,-18.542,0.034,1,0,0,0,0.6471,0,0,0,-0.4763,0,0.6237,0,0,1,0,0,0,0,0,0,0,0,0,0,5.9777,3.7163,0,0,0,0,0,0,0,0,0,0,0,0,36.75,0,0,0,-2.06,-2.6597,1.8803,18910.8574,0.904,0,333999.9688,43,28,150,41,15,0.9294,18.3353,1,0,0,20.4443,3,0,0,0.0494,-120.7952,0,331.0641,9903500,10000,40.8484,-80.3442,5.9243
1.5,9.1394,3,0,0,0.0494,-120.7952,0,331.0641,200,10000,10000,40.84836807,-80.34420897,40.7812,11.264,0,13.8297,-3.602,10.0406,-2.7875,-0.0052,-0.031,-0.9956,1.1846,-0.1158,-0.4888,52.3984,0,35.7,32.9706,35.2706,0,40.3411,0,0,-0.7275,-1.0176,-0.5686,0.4451,0.1235,0,0.6725,0.8961,0.7412,-18.542,0.034,1,0,0,0,0.451,0,0,0,-0.5839,0,0.6,0,0,1,0,0,0,0,0,0,0,0,0,0,5.9777,3.7163,0,0,0,0,0,0,0,0,0,0,0,0,36.75,0,0,0,-2.06,-2.6748,1.9163,18928.5723,0.954,0,333999.9688,43,28,150,41,15,0.8314,18.3843,1,0,0,20.4443,3,0,0,0.0494,-120.7952,0,331.0641,9903500,10000,40.8484,-80.3442,6.1285
1.55,9.1394,3,0,0,0.0494,-120.7952,0,331.0641,200,10000,10000,40.84836807,-80.34420897,40.7812,11.264,0,13.8219,-3.5941,10.0828,-2.7852,-0.0054,-0.0303,-0.9951,1.1924,-0.1297,-0.4979,52.2031,0,35.7,32.9755,35.2755,0,40.3511,0,0,-0.7706,-1.0647,-0.6765,0.5,0.2471,0,0.7,1.0471,0.7706,-18.542,0.034,1,0,0,0,0.5088,0,0,0,-0.6914,0,0.6,0,0,1,0,0,0,0,0,0,0,0,0,0,5.9777,3.728,0,0,0,0,0,0,0,0,0,0,0,0,36.7503,0,0,0,-2.048,-2.671,1.7115,18952.3809,0.996,0,333999.9688,43,28,150,41,15,0.833,18.367,1,0,0,20.4443,3,0,0,0.0494,-120.7952,0,331.0641,9903500,10000,40.8484,-80.3442,6.3328
1.6,9.1394,3,0,0,0.0494,-120.7952,0,331.0641,200,10000,10000,40.84836807,-80.34420897,40.7812,11.264,0,13.8188,-3.6082,10.0938,-2.7832,-0.0055,-0.0312,-0.9946,1.2021,-0.1277,-0.4978,51.9844,0,35.7,32.9805,35.2805,0,40.3611,0,0,-0.8686,-1.0157,-0.9216,0.5,0.5902,0,0.7,1.3902,0.8686,-18.542,0.034,1,0,0,0,0.6559,0,0,0,-0.6505,0,0.6495,0,0,1,0,0,0,0,0,0,0,0,0,0,5.9777,3.7558,0,0,0,0,0,0,0,0,0,0,0,0,36.7534,0,0,0,-2.0298,-2.6574,1.5513,18951.4277,0.946,0,333999.9688,43,28,150,41,15,0.8816,18.3184,1,0,0,20.4443,3,0,0,0.0494,-120.7952,0,331.0641,9903500,10000,40.8484,-80.3442,6.5371
1.65,9.1394,3,0,0,0.0494,-120.7952,0,331.0641,200,10000,10000,40.84836807,-80.34420897,40.7812,11.264,0,13.8281,-3.6188,10.0469,-2.7902,-0.0059,-0.0322,-0.9946,1.1855,-0.1005,-0.4858,51.75,0,35.7,32.9855,35.2855,0,40.3711,0,0,-0.6667,-0.7,-0.6667,0.4333,0.4333,0,0.6,1,0.6667,-18.542,0.034,1,0,0,0,0.3569,0,0,0,-0.5806,0,0.6935,0,0,1,0,0,0,0,0,0,0,0,0,0,5.9777,3.7592,0,0,0,0,0,0,0,0,0,0,0,0,36.7565,0,0,0,-2.02,-2.657,1.518,18880,0.896,0,333999.9688,43,28,150,41,15,0.9295,18.3,1,0,0,20.4443,3,0,0,0.0494,-120.7952,0,331.0641,9903500,10000,40.8484,-80.3442,6.7414
1.7,9.1394,3,0,0,0.0494,-120.7952,0,331.0641,200,10000,10000,40.84836807,-80.34420897,40.7812,11.264,0,13.7641,-3.6148,10.0484,-2.7949,-0.006,-0.0319,-0.9951,1.1582,-0.082,-0.4827,51.5078,0,35.7,32.9905,35.2905,0,40.381,0,0,-0.3235,-0.2588,-0.1765,0.3353,0.0412,0,0.4529,0.2647,0.3235,-18.542,0.034,1,0,0,0,-0.1333,0,0,0,-0.2581,0,0.586,0,0,1,0,0,0,0,0,0,0,0,0,0,5.9777,3.7313,0,0,0,0,0,0,0,0,0,0,0,0,36.7596,0,0,0,-2.02,-2.6721,1.5388,18833.7148,0.846,0,333999.9688,43,28,150,41,15,0.9771,18.3,1,0,0,20.4443,3,0,0,0.0494,-120.7952,0,331.0641,9903500,10000,40.8484,-80.3442,6.9457
1.75,9.1394,3,0,0,0.0494,-120.7952,0,331.0641,200,10000,10000,40.84836807,-80.34420897,40.7812,11.264,0,13.8109,-3.6117,10.0734,-2.7859,-0.0064,-0.0316,-0.9958,1.1768,-0.0785,-0.4773,51.2344,0,35.7,32.9955,35.2955,0,40.391,0,0,-0.0745,0.151,0.1569,0.1431,-0.2882,0,0.4,-0.251,0.0431,-18.542,0.034,1,0,0,0,-0.2029,0,0,0,-0.0323,0,0.5108,0,0,1,0,0,0,0,0,0,0,0,0,0,5.9651,3.729,0,0,0,0,0,0,0,0,0,0,0,0,36.7627,0,0,0,-2.02,-2.6728,1.8435,18919.4277,0.796,0,333999.9688,43,28,150,41,15,1,18.3,1,0,0,20.4443,3,0,0,0.0494,-120.7952,0,331.0641,9903500,10000,40.8484,-80.3442,7.15
1.8,9.1394,3,0,0,0.0494,-120.7952,0,331.0641,200,10000,10000,40.84836807,-80.34420897,40.7812,11.264,0,13.8297,-3.6137,10.0859,-2.7906,-0.0059,-0.0317,-0.9961,1.1768,-0.0699,-0.4697,50.9609,0,35.7005,33.002,35.2995,0,40.3995,0,0,0.1216,0.5431,0.402,-0.102,-0.5824,0,0.4,-0.6431,-0.202,-18.542,0.034,1,0,0,0,-0.0559,0,0,0,-0.1935,0,0.5645,0,0,1,0,0,0,0,0,0,0,0,0,0,5.9375,3.7565,0,0,0,0,0,0,0,0,0,0,0,0,36.7659,0,0,0,-2.02,-2.6578,2.1117,18998,0.746,0,333999.9688,43,28,150,41,15,1,18.3,1,0,0,20.4443,3,0,0,0.0494,-120.7952,0,331.0641,9903500,10000,40.8484,-80.3442,7.3543
1.85,9.1394,3,0,0,0.0494,-120.7952,0,331.0641,200,10000,10000,40.84836807,-80.34420897,40.7812,11.2667,0,13.8562,-3.6223,10.0906,-2.7699,-0.0049,-0.0327,-0.9963,1.1914,-0.0867,-0.4937,50.625,0,35.7055,33.022,35.2945,0,40.3945,0,0,0.1118,0.4941,0.3235,-0.1118,-0.3471,0,0.4588,-0.5353,-0.2118,-18.542,0.034,1,0,0,0,0,0,0,0,-0.2086,0,0.6183,0,0,1,0,0,0,0,0,0,0,0,0,0,5.9342,3.7714,0,0,0,0,0,0,0,0,0,0,0,0,36.769,0,0,0,-2.0127,-2.6403,1.807,18964.666,0.696,0,333999.9688,43,28,150,41,15,0.9781,18.3219,1,0,0,20.4443,3,0,0,0.0494,-120.7952,0,331.0641,9903500,10000,40.8484,-80.3442,7.5585
1.9,9.1394,3,0,0,0.0494,-120.7952,0,331.0641,200,10000,10000,40.84836807,-80.34420897,40.7812,11.27,0,13.8406,-3.6117,10.0188,-2.8102,-0.0059,-0.0326,-0.9966,1.2051,-0.1047,-0.5024,50.2734,0,35.7105,33.042,35.2895,0,40.3895,0,0,-0.0353,0.151,0.0294,0.0353,0.2412,0,0.5569,-0.0941,-0.0647,-18.542,0.034,1,0,0,0,0,0,0,0,0.0602,0,0.672,0,0,1,0,0,0,0,0,0,0,0,0,0,5.9595,3.7714,0,0,0,0,0,0,0,0,0,0,0,0,36.7721,0,0,0,-1.9976,-2.6201,1.5022,18931.334,0.646,0,333999.9688,43,28,150,41,15,0.9305,18.3695,1,0,0,20.4443,3,0,0,0.0494,-120.7952,0,331.0641,9903500,10000,40.8484,-80.3442,7.7628
1.95,9.1394,3,0,0,0.0494,-120.7952,0,331.0641,200,10000,10000,40.84836807,-80.34420897,40.7812,11.272,0,13.8391,-3.6051,10.0516,-2.7902,-0.007,-0.0306,-0.9958,1.2139,-0.106,-0.4932,49.8958,0,35.7155,33.0621,35.2845,0,40.3845,0,0,0.1471,0.2745,0.1471,0.0176,0.2255,0,0.6,-0.2843,-0.2471,-18.542,0.034,1,0,0,0,-0.1706,0,0,0,0.071,0,0.6484,0,0,1,0,0,0,0,0,0,0,0,0,0,5.9777,3.7714,0,0,0,0,0,0,0,0,0,0,0,0,36.7752,0,0,0,-1.9969,-2.6261,1.49,18874.6152,0.596,0,333999.9688,43,28,150,41,15,0.9,18.3827,1,0,0,20.4443,3,0,0,0.0494,-120.7952,0,331.0641,9903500,10000,40.8484,-80.3442,7.9671
2,9.1394,3,0,0,0.0494,-120.7952,0,331.0641,200,10000,10000,40.84836807,-80.34420897,40.7812,11.272,0,13.8266,-3.6031,10.0969,-2.7852,-0.0068,-0.0313,-0.9956,1.2334,-0.0991,-0.4734,49.4792,0,35.7205,33.0821,35.2795,0,40.3795,0,0,0.5882,0.7647,0.5882,-0.1294,-0.2647,0,0.6,-0.9706,-0.6882,-18.542,0.034,1,0,0,0,-0.4647,0,0,0,-0.1978,0,0.5409,0,0,1,0,0,0,0,0,0,0,0,0,0,5.9777,3.7714,0,0,0,0,0,0,0,0,0,0,0,0,36.7784,0,0,0,-2.0106,-2.6582,1.49,18816.9238,0.546,0,333999.9688,43,28,150,41,15,0.9,18.3346,1,0,0,20.4443,3,0,0,0.0494,-120.7952,0,331.0641,9903500,10000,40.8484,-80.3442,8.1714
2.05,9.1394,3,0,0,0.0494,-120.7952,0,331.0641,200,10000,10000,40.84836807,-80.34420897,40.7812,11.272,0,13.8359,-3.6066,10.0953,-2.7891,-0.0055,-0.0331,-0.9956,1.2217,-0.1007,-0.4622,49.0625,0,35.7255,33.1021,35.2745,0,40.3745,0,0,0.5196,0.8471,0.5196,-0.2,-0.3725,0,0.6255,-0.8412,-0.6196,-18.542,0.034,1,0,0,0,-0.4676,0,0,0,-0.1,0,0.5333,0,0,1,0,0,0,0,0,0,0,0,0,0,5.9777,3.7714,0,0,0,0,0,0,0,0,0,0,0,0,36.7815,0,0,0,-2.02,-2.6752,1.6995,18843.5234,0.496,0,333999.9688,43,28,150,41,15,0.9135,18.2865,1,0,0,20.4443,3,0,0,0.0494,-120.7952,0,331.0641,9903500,10000,40.8484,-80.3442,8.3757
2.1,9.1394,3,0,0,0.0494,-120.7952,0,331.0641,200,10000,10000,40.84836807,-80.34420897,40.7812,11.272,0,13.8219,-3.602,10.0703,-2.7984,-0.0059,-0.0315,-0.9956,1.1797,-0.1042,-0.4705,48.6589,0,35.7305,33.1221,35.2695,0,40.3695,0,0,-0.0196,0.5529,-0.0196,-0.2,-0.1275,0,0.6745,0.0412,-0.0804,-18.542,0.034,1,0,0,0,-0.2225,0,0,0,0.2226,0,0.5871,0,0,1,0,0,0,0,0,0,0,0,0,0,5.9777,3.7714,0,0,0,0,0,0,0,0,0,0,0,0,36.7846,0,0,0,-2.02,-2.6602,1.9376,18881.6191,0.446,0,333999.9688,43,28,150,41,15,0.9615,18.2385,1,0,0,20.4443,3,0,0,0.0494,-120.7952,0,331.0641,9903500,10000,40.8484,-80.3442,8.58
2.15,9.1394,3,0,0,0.0494,-120.7952,0,331.0641,200,10000,10000,40.84836807,-80.34420897,40.7812,11.272,0,13.8359,-3.6004,10.0406,-2.7922,-0.0073,-0.0301,-0.9956,1.1733,-0.0966,-0.4589,48.2552,0,35.7355,33.1421,35.2645,0,40.3645,0,0,-0.4882,0.2118,-0.3471,-0.1529,0.2588,0,0.6765,0.6412,0.4353,-18.542,0.034,1,0,0,0,0.0716,0,0,0,0.4634,0,0.6409,0,0,1,0,0,0,0,0,0,0,0,0,0,5.9777,3.7632,0,0,0,0,0,0,0,0,0,0,0,0,36.7878,0,0,0,-2.0265,-2.6613,2.042,18916,0.396,0,333999.9688,43,28,150,41,15,0.9904,18.2096,1,0,0,20.4443,3,0,0,0.0494,-120.7952,0,331.0641,9903500,10000,40.8484,-80.3442,8.7842
2.2,9.1394,3,0,0,0.0494,-120.7952,0,331.0641,200,10000,10000,40.84836807,-80.34420897,40.7812,11.272,0,13.8375,-3.6086,10.1078,-2.7672,-0.0076,-0.0316,-0.9956,1.1865,-0.1083,-0.4539,47.8672,0,35.7405,33.1622,35.2595,0,40.3595,0,0,-0.8804,-0.1804,-0.4451,-0.0549,0.798,0,0.6275,0.9353,0.9255,-18.542,0.034,1,0,0,0,0.4147,0,0,0,0.6785,0,0.6946,0,0,1,0,0,0,0,0,0,0,0,0,0,5.9777,3.7356,0,0,0,0,0,0,0,0,0,0,0,0,36.7909,0,0,0,-2.0467,-2.6967,2.1087,18949.334,0.346,0,333999.9688,43,28,150,41,15,0.9423,18.2577,1,0,0,20.4443,3,0,0,0.0494,-120.7952,0,331.0641,9903500,10000,40.8484,-80.3442,8.9885
2.25,9.1394,3,0,0,0.0494,-120.7952,0,331.0641,200,10000,10000,40.84836807,-80.34420897,40.7812,11.272,0,13.8047,-3.6109,10.0969,-2.7863,-0.0055,-0.0327,-0.9954,1.1748,-0.1055,-0.4628,47.4896,0,35.7455,33.1822,35.2545,0,40.3545,0,0,-0.7549,-0.249,-0.349,-0.0863,0.7549,0,0.6216,0.9922,1.1137,-18.542,0.034,1,0,0,0,0.5324,0,0,0,0.4097,0,0.7484,0,0,1,0,0,0,0,0,0,0,0,0,0,5.9694,3.7246,0,0,0,0,0,0,0,0,0,0,0,0,36.794,0,0,0,-2.06,-2.7132,2.062,18989.1426,0.296,0,333999.9688,43,28,150,41.0485,15,0.9,18.3,1,0,0,20.4443,3,0,0,0.0494,-120.7952,0,331.0641,9903500,10000,40.8484,-80.3442,9.1928
2.3,9.1394,3,0,0,0.0494,-120.7952,0,331.0641,200,10000,10000,40.84836807,-80.34420897,40.7812,11.272,0,13.8531,-3.6113,10.1141,-2.7902,-0.0054,-0.0302,-0.9951,1.1494,-0.0762,-0.4683,47.1146,0,35.7505,33.2022,35.2495,0,40.3494,0,0,0.0294,0.0941,-0.0059,-0.2824,-0.0294,0,0.6706,0.7471,0.9176,-18.542,0.034,1,0,0,0,0.3853,0,0,0,0.1,0,0.7935,0,0,1,0,0,0,0,0,0,0,0,0,0,5.9415,3.7525,0,0,0,0,0,0,0,0,0,0,0,0,36.7971,0,0,0,-2.06,-2.6932,1.962,19032,0.246,0,333999.9688,43,28,150,41.534,15,0.9,18.3,1,0,0,20.4443,3,0,0,0.0494,-120.7952,0,331.0641,9903500,10000,40.8484,-80.3442,9.3971
2.35,9.1394,3,0,0,0.0494,-120.7952,0,331.0641,200,10000,10000,40.84836807,-80.34420897,40.7812,11.272,0,13.8359,-3.6191,10.1156,-2.7824,-0.0069,-0.0302,-0.9951,1.1523,-0.0692,-0.4835,46.75,0,35.7556,33.2222,35.2444,0,40.3444,0,0,0.5588,0.3588,0.2588,-0.4,-0.4608,0,0.6804,0.2863,0.4667,-18.542,0.034,1,0,0,0,0.1353,0,0,0,0.1,0,0.6323,0,0,1,0,0,0,0,0,0,0,0,0,0,5.9226,3.7626,0,0,0,0,0,0,0,0,0,0,0,0,36.8003,0,0,0,-2.0543,-2.6757,1.8012,19008.5723,0.196,0,333999.9688,43,28,150,42,15,0.9019,18.3019,1,0,0,20.4443,3,0,0,0.0494,-120.7952,0,331.0641,9903500,10000,40.8484,-80.3442,9.6014
2.4,9.1394,3,0,0,0.0494,-120.7952,0,331.0641,200,10000,10000,40.84836807,-80.34420897,40.7812,11.272,0,13.8125,-3.6086,10.1187,-2.7871,-0.0076,-0.032,-0.9951,1.1797,-0.0908,-0.5015,46.3854,0,35.7606,33.2422,35.2394,0,40.3394,0,0,0.7059,0.5059,0.4059,-0.4,-0.3627,0,0.6314,-0.498,-0.3667,-18.542,0.034,1,0,0,0,-0.2569,0,0,0,0.0226,0,0.5097,0,0,1,0,0,0,0,0,0,0,0,0,0,5.9226,3.735,0,0,0,0,0,0,0,0,0,0,0,0,36.8034,0,0,0,-2.0375,-2.6631,1.5965,18937.1426,0.146,0,333999.9688,43,28,150,42,15,0.95,18.35,1,0,0,20.4443,3,0,0,0.0494,-120.7952,0,331.0641,9903500,10000,40.8484,-80.3442,9.8057
2.45,9.1394,3,0,0,0.0494,-120.7952,0,331.0641,200,10000,10000,40.84836807,-80.34420897,40.7812,11.272,0,13.8313,-3.591,10.1078,-2.7883,-0.0076,-0.0321,-0.9951,1.2036,-0.1171,-0.5029,46.0104,0,35.7656,33.2623,35.2344,0,40.3344,0,0,0.5882,0.4059,0.2882,-0.4,-0.1588,0,0.6,-0.6647,-0.6706,-18.542,0.034,1,0,0,0,-0.3324,0,0,0,-0.4075,0,0.5634,0,0,1,0,0,0,0,0,0,0,0,0,0,5.9226,3.7244,0,0,0,0,0,0,0,0,0,0,0,0,36.8065,0,0,0,-2.0207,-2.6505,1.5563,18886.2852,0.096,0,333999.9688,43,28,150,42,15,0.9981,18.3981,1,0,0,20.4443,3,0,0,0.0494,-120.7952,0,331.0641,9903500,10000,40.8484,-80.3442,10.01
2.5,9.1394,3,0,0,0.0494,-120.7952,0,331.0641,200,10000,10000,40.84836807,-80.34420897,40.7812,11.272,0,13.825,-3.6113,10.1016,-2.7797,-0.0064,-0.0301,-0.9956,1.1904,-0.1252,-0.4939,45.6328,0,35.7706,33.2823,35.2294,0,40.3294,0,0,0,-0.1333,-0.3,-0.4,0.2333,0,0.6,0.2667,-0.0333,-18.542,0.034,1,0,0,0,0.1088,0,0,0,-0.5968,0,0.6344,0,0,1,0,0,0,0,0,0,0,0,0,0,5.9226,3.7497,0,0,0,0,0,0,0,0,0,0,0,0,36.8096,0,0,0,-2.0392,-2.6644,1.6944,18857.7148,0.046,0,333999.9688,43,28,150,42,15,0.9534,18.3534,1,0,0,20.4443,3,0,0,0.0494,-120.7952,0,331.0641,9903500,10000,40.8484,-80.3442,10.2142
2.55,9.1394,3,0,0,0.0494,-120.7952,0,331.0641,200,10000,10000,40.84836807,-80.34420897,40.7812,11.272,0,13.8,-3.598,10.0984,-2.7969,-0.0055,-0.0305,-0.9956,1.1802,-0.0997,-0.475,45.276,0,35.7756,33.3023,35.2244,0,40.3244,0,0,-0.3059,-0.4059,-0.6216,-0.3686,0.4059,0,0.6,0.7745,0.3059,-18.542,0.034,1,0,0,0,0.3333,0,0,0,-0.2742,0,0.7419,0,0,1,0,0,0,0,0,0,0,0,0,0,5.9265,3.7714,0,0,0,0,0,0,0,0,0,0,0,0,36.8125,0,0,0,-2.0592,-2.6794,1.8114,18850.7539,0.004,0,333999.9688,43,28,150,42,15,0.9049,18.3049,1,0,0,20.4443,3,0,0,0.0494,-120.7952,0,331.0641,9903500,10000,40.8484,-80.3442,10.4185
2.6,9.1394,3,0,0,0.0494,-120.7952,0,331.0641,200,10000,10000,40.84836807,-80.34420897,40.7812,11.272,0,13.8156,-3.607,10.0891,-2.791,-0.0071,-0.0308,-0.9956,1.1709,-0.0776,-0.4937,44.9505,0,35.7806,33.3223,35.2194,0,40.3194,0,0,-0.0118,-0.1118,-0.3765,-0.2706,0.1118,0,0.6,0.3824,0.0118,-18.542,0.034,1,0,0,0,0.1373,0,0,0,-0.0011,0,0.7505,0,0,1,0,0,0,0,0,0,0,0,0,0,5.9543,3.7714,0,0,0,0,0,0,0,0,0,0,0,0,36.8125,0,0,0,-2.0406,-2.6655,1.8939,18879.0566,0.0539,0,333999.9688,43,28,150,42,15,0.9,18.2567,1,0,0,20.4443,3,0,0,0.0494,-120.7952,0,331.0641,9903500,10000,40.8484,-80.3442,10.6228
2.65,9.1394,3,0,0,0.0494,-120.7952,0,331.0641,200,10000,10000,40.84836807,-80.34420897,40.7812,11.272,0,13.825,-3.6066,10.1156,-2.7969,-0.0073,-0.0292,-0.9954,1.1753,-0.0529,-0.4908,44.625,0,35.7856,33.3423,35.2144,0,40.3144,0,0,0.3647,0.2098,-0.0627,-0.2275,-0.1824,0,0.5588,-0.1333,-0.3922,-18.542,0.034,1,0,0,0,-0.1176,0,0,0,0.214,0,0.643,0,0,1,0,0,0,0,0,0,0,0,0,0,5.9777,3.7714,0,0,0,0,0,0,0,0,0,0,0,0,36.8125,0,0,0,-2.0204,-2.6503,1.9765,18907.3594,0.1039,0,333999.9688,43,28,150,42,15,0.9,18.2087,1,0,0,20.4443,3,0,0,0.0494,-120.7952,0,331.0641,9903500,10000,40.8484,-80.3442,10.8271
2.7,9.1394,3,0,0,0.0494,-120.7952,0,331.0641,200,10000,10000,40.84836807,-80.34420897,40.7812,11.272,0,13.825,-3.6137,10.0437,-2.8105,-0.0056,-0.0316,-0.9951,1.2012,-0.0534,-0.4731,44.3125,0,35.7906,33.3624,35.2094,0,40.3094,0,0,0.9529,0.602,0.4275,-0.3255,-0.4765,0,0.4118,-0.9667,-1.0784,-18.542,0.034,1,0,0,0,-0.5098,0,0,0,0.2032,0,0.5355,0,0,1,0,0,0,0,0,0,0,0,0,0,5.9777,3.7714,0,0,0,0,0,0,0,0,0,0,0,0,36.8125,0,0,0,-2.02,-2.6648,2.059,18935.6602,0.1538,0,333999.9688,43,28,150,42,15,0.9394,18.2394,1,0,0,20.4443,3,0,0,0.0494,-120.7952,0,331.0641,9903500,10000,40.8484,-80.3442,11.0314
2.75,9.1394,3,0,0,0.0494,-120.7952,0,331.0641,200,10000,10000,40.84836807,-80.34420897,40.7812,11.272,0,13.8359,-3.6238,10.0609,-2.7957,-0.0058,-0.0341,-0.9963,1.1895,-0.0747,-0.4646,44,0,35.7956,33.3824,35.2044,0,40.3044,0,0,1.2118,0.7706,0.6706,-0.3765,-0.5941,0,0.3471,-1.3529,-1.3882,-18.542,0.034,1,0,0,0,-0.6725,0,0,0,0.0419,0,0.428,0,0,1,0,0,0,0,0,0,0,0,0,0,5.9777,3.7714,0,0,0,0,0,0,0,0,0,0,0,0,36.8125,0,0,0,-2.02,-2.68,2.1067,18964,0.2038,0,333999.9688,43,28,150,42,15,0.9875,18.2875,1,0,0,20.4443,3,0,0,0.0494,-120.7952,0,331.0641,9903500,10000,40.8484,-80.3442,11.2357
2.8,9.1394,3,0,0,0.0494,-120.7952,0,331.0641,200,10000,10000,40.84836807,-80.34420897,40.7812,11.272,0,13.8344,-3.6004,10.0359,-2.798,-0.0072,-0.0321,-0.9961,1.1631,-0.0723,-0.4629,43.7031,0,35.8006,33.4036,35.2006,0,40.2982,0,0,0.4275,0.2314,0.1314,-0.2784,-0.1529,0,0.5431,-0.3235,-0.5059,-18.542,0.034,1,0,0,0,-0.1824,0,0,0,-0.1591,0,0.4398,0,0,1,0,0,0,0,0,0,0,0,0,0,5.9777,3.7499,0,0,0,0,0,0,0,0,0,0,0,0,36.8125,0,0,0,-2.02,-2.665,1.94,18992.5723,0.2537,0,333999.9688,43,28,150,42,15,0.9644,18.3712,1,0,0,20.4443,3,0,0,0.0494,-120.7952,0,331.0641,9903500,10000,40.8484,-80.3442,11.4399
2.85,9.1394,3,0,0,0.0494,-120.7952,0,331.0641,200,10000,10000,40.84836807,-80.34420897,40.7812,11.272,0,13.8328,-3.5938,10.0516,-2.7938,-0.0074,-0.0302,-0.9946,1.1597,-0.0678,-0.4719,43.4167,0,35.8056,33.4335,35.2056,0,40.2832,0,0,-0.1804,-0.151,-0.2216,-0.2,0.1706,0,0.7,0.3922,0.1804,-18.542,0.034,1,0,0,0,0.1461,0,0,0,-0.3742,0,0.4935,0,0,1,0,0,0,0,0,0,0,0,0,0,5.9777,3.7223,0,0,0,0,0,0,0,0,0,0,0,0,36.8125,0,0,0,-2.02,-2.65,1.7894,19020.9434,0.3037,0,333999.9688,43,28,150,42,15,0.9163,18.4673,1,0,0,20.4443,3,0,0,0.0494,-120.7952,0,331.0641,9903500,10000,40.8484,-80.3442,11.6442
2.9,9.1394,3,0,0,0.0494,-120.7952,0,331.0641,200,10000,10000,40.84836807,-80.34420897,40.7812,11.272,0,13.8328,-3.6031,10.0234,-2.7871,-0.0066,-0.0296,-0.9951,1.1641,-0.0737,-0.5117,43.1354,0,35.8106,33.4635,35.2106,0,40.2683,0,0,-0.0824,0.0941,0.1706,-0.2,0.0235,0,0.7,-0.1471,0.0824,-18.542,0.034,1,0,0,0,-0.099,0,0,0,-0.2108,0,0.5,0,0,1,0,0,0,0,0,0,0,0,0,0,5.956,3.7163,0,0,0,0,0,0,0,0,0,0,0,0,36.8125,0,0,0,-2.02,-2.665,2.0253,19044.5273,0.3536,0,333999.9688,43,28,150,42,15,0.9317,18.4365,1,0,0,20.4443,3,0,0,0.0494,-120.7952,0,331.0641,9903500,10000,40.8484,-80.3442,11.8485
2.95,9.1394,3,0,0,0.0494,-120.7952,0,331.0641,200,10000,10000,40.84836807,-80.34420897,40.7812,11.272,0,13.7875,-3.6234,10.0391,-2.7969,-0.0059,-0.0318,-0.9956,1.1626,-0.1029,-0.5071,42.875,0,35.8156,33.4934,35.2156,0,40.2533,0,0,0.0392,0.2765,0.5235,-0.1843,-0.1157,0,0.6843,-0.6549,-0.0549,-18.542,0.034,1,0,0,0,-0.3265,0,0,0,0.0043,0,0.5,0,0,1,0,0,0,0,0,0,0,0,0,0,5.9282,3.7163,0,0,0,0,0,0,0,0,0,0,0,0,36.8125,0,0,0,-2.02,-2.68,2.2611,19068.1133,0.4036,0,333999.9688,43,28,150,42,15,0.9798,18.3404,1,0,0,20.4443,3,0,0,0.0494,-120.7952,0,331.0641,9903500,10000,40.8484,-80.3442,12.0528
3,9.1394,3,0,0,0.0494,-120.7952,0,331.0641,200,10000,10000,40.84836807,-80.34420897,40.7812,11.272,0,13.8406,-3.5977,10.0406,-2.7934,-0.0052,-0.0334,-0.9961,1.1592,-0.0815,-0.4895,42.6146,0,35.8206,33.5234,35.2206,0,40.2383,0,0,0.2843,0.1294,0.6706,-0.0863,-0.2137,0,0.5863,-0.998,-0.398,-18.542,0.034,1,0,0,0,-0.4735,0,0,0,0.2194,0,0.5,0,0,1,0,0,0,0,0,0,0,0,0,0,5.9446,3.7383,0,0,0,0,0,0,0,0,0,0,0,0,36.8125,0,0,0,-2.0402,-2.68,1.9733,19027.4082,0.4535,0,333999.9688,43,28,150,42,15,0.9724,18.3276,1,0,0,20.4443,3,0,0,0.0494,-120.7952,0,331.0641,9903500,10000,40.8484,-80.3442,12.2571
3.05,9.1394,3,0,0,0.0494,-120.7952,0,331.0641,200,10000,10000,40.84836807,-80.34420897,40.7812,11.272,0,13.8313,-3.6004,10.0328,-2.7887,-0.0054,-0.0313,-0.9958,1.1846,-0.062,-0.4967,42.3854,0,35.8256,33.5533,35.2255,0,40.2234,0,0,0.4706,-0.0118,0.7529,-0.0118,-0.2824,0,0.5,-1.2235,-0.6588,-18.542,0.034,1,0,0,0,-0.5588,0,0,0,0.3054,0,0.5086,0,0,1,0,0,0,0,0,0,0,0,0,0,5.9722,3.7659,0,0,0,0,0,0,0,0,0,0,0,0,36.8125,0,0,0,-2.0596,-2.679,1.64,18981.1113,0.5035,0,333999.9688,43,28,150,42,15,0.9248,18.3752,1,0,0,20.4443,3,0,0,0.0494,-120.7952,0,331.0641,9903500,10000,40.8484,-80.3442,12.4614
3.1,9.1394,3,0,0,0.0494,-120.7952,0,331.0641,200,10000,10000,40.84836807,-80.34420897,40.7812,11.272,0,13.8484,-3.602,10.0516,-2.7887,-0.0055,-0.0308,-0.9956,1.1846,-0.0891,-0.4946,42.1641,0,35.8305,33.5832,35.2305,0,40.2084,0,0,0.2255,-0.1098,0.3608,-0.1098,-0.1353,0,0.5,-0.5863,-0.3157,-18.542,0.034,1,0,0,0,-0.2647,0,0,0,-0.286,0,0.5624,0,0,1,0,0,0,0,0,0,0,0,0,0,5.9777,3.7512,0,0,0,0,0,0,0,0,0,0,0,0,36.8125,0,0,0,-2.0394,-2.6285,1.6928,18940.4863,0.5534,0,333999.9688,43,28,150,42,15,0.9462,18.3769,1,0,0,20.4443,3,0,0,0.0494,-120.7952,0,331.0641,9903500,10000,40.8484,-80.3442,12.6657
3.15,9.1394,3,0,0,0.0494,-120.7952,0,331.0641,200,10000,10000,40.84836807,-80.34420897,40.7812,11.272,0,13.8906,-3.5781,10.0594,-2.8672,-0.005,-0.0324,-0.9958,1.1899,-0.0978,-0.4932,41.9583,0,35.8355,33.6132,35.2355,0,40.1934,0,0,0.0078,-0.2,-0.0157,-0.1725,-0.0039,0,0.5078,0.0078,-0.0078,-18.542,0.034,1,0,0,0,0.0049,0,0,0,-0.5548,0,0.6323,0,0,1,0,0,0,0,0,0,0,0,0,0,5.9777,3.7259,0,0,0,0,0,0,0,0,0,0,0,0,36.8125,0,0,0,-2.0207,-2.5825,1.8676,18901.6504,0.6034,0,333999.9688,43,28,150,42,15,1.0423,18.3288,1,0,0,20.4443,3,0,0,0.0494,-120.7952,0,331.0641,9903500,10000,40.8484,-80.3442,12.8699
3.2,9.1394,3,0,0,0.0494,-120.7952,0,331.0641,200,10000,10000,40.84836807,-80.34420897,40.7812,11.272,0,13.8125,-3.6047,10.1172,-2.7793,-0.0056,-0.0324,-0.9966,1.1816,-0.0801,-0.4871,41.776,0,35.8405,33.6431,35.2405,0,40.1784,0,0,0.1059,-0.2,-0.2118,0.1706,-0.0529,0,0.6059,0.1059,-0.1059,-18.542,0.034,1,0,0,0,0.0539,0,0,0,-0.071,0,0.7398,0,0,1,0,0,0,0,0,0,0,0,0,0,5.9777,3.7334,0,0,0,0,0,0,0,0,0,0,0,0,36.8125,0,0,0,-2.0389,-2.6462,1.9667,18920,0.6533,0,333999.9688,43,28,150,42,15,1.0612,18.3,1,0,0,20.4443,3,0,0,0.0494,-120.7952,0,331.0641,9903500,10000,40.8484,-80.3442,13.0742
3.25,9.1394,3,0,0,0.0494,-120.7952,0,331.0641,200,10000,10000,40.84836807,-80.34420897,40.7812,11.272,0,13.825,-3.6137,10.0344,-2.7832,-0.0059,-0.0313,-0.9958,1.1577,-0.0678,-0.5154,41.5938,0,35.8455,33.6731,35.2455,0,40.1635,0,0,0.1784,-0.2118,-0.4,0.4902,-0.0882,0,0.7,0.2118,-0.1784,-18.542,0.034,1,0,0,0,0.0794,0,0,0,0.129,0,0.729,0,0,1,0,0,0,0,0,0,0,0,0,0,5.9777,3.7609,0,0,0,0,0,0,0,0,0,0,0,0,36.8125,0,0,0,-2.0571,-2.7098,2.0333,18962.8574,0.7033,0,333999.9688,43,28,150,42,15,0.9641,18.3,1,0,0,20.4443,3,0,0,0.0494,-120.7952,0,331.0641,9903500,10000,40.8484,-80.3442,13.2785
3.3,9.1394,3,0,0,0.0494,-120.7952,0,331.0641,200,10000,10000,40.84836807,-80.34420897,40.7812,11.272,0,13.8188,-3.607,10.0375,-2.8027,-0.006,-0.0306,-0.9956,1.1553,-0.0886,-0.5122,41.4505,0,35.8505,33.703,35.2505,0,40.1485,0,0,-0.3608,-0.5059,-0.4,0.2451,0.2059,0,0.7,0.5059,0.3608,-18.542,0.034,1,0,0,0,-0.2637,0,0,0,-0.0323,0,0.5677,0,0,1,0,0,0,0,0,0,0,0,0,0,5.9605,3.7714,0,0,0,0,0,0,0,0,0,0,0,0,36.8125,0,0,0,-2.043,-2.6903,1.98,18942.8574,0.7532,0,333999.9688,43,28,150,42,15,0.9,18.3,1,0,0,20.4443,3,0,0,0.0494,-120.7952,0,331.0641,9903500,10000,40.8484,-80.3442,13.4828
3.35,9.1394,3,0,0,0.0494,-120.7952,0,331.0641,200,10000,10000,40.84836807,-80.34420897,40.7812,11.272,0,13.8656,-3.5957,10.1219,-2.7906,-0.0065,-0.0311,-0.9949,1.1572,-0.0966,-0.4562,41.3073,0,35.8555,33.7329,35.2555,0,40.1335,0,0,-0.9,-0.8,-0.4,0,0.5,0,0.7,0.8,0.9,-18.542,0.034,1,0,0,0,-0.6029,0,0,0,0.0559,0,0.5,0,0,1,0,0,0,0,0,0,0,0,0,0,5.9326,3.7714,0,0,0,0,0,0,0,0,0,0,0,0,36.8125,0,0,0,-2.0228,-2.6549,1.8467,18880.9531,0.8032,0,333999.9688,43,28,150,42,15,0.9,18.3,1,0,0,20.4443,3,0,0,0.0494,-120.7952,0,331.0641,9903500,10000,40.8484,-80.3442,13.6871
3.4,9.1394,3,0,0,0.0494,-120.7952,0,331.0641,200,10000,10000,40.84836807,-80.34420897,40.7812,11.272,0,13.8406,-3.5977,10.1172,-2.7672,-0.0078,-0.0313,-0.9941,1.1396,-0.1061,-0.4563,41.1719,0,35.8605,33.7629,35.2605,0,40.1186,0,0,-0.2137,-0.1137,0.4333,-0.098,-0.2353,0,0.749,-0.5235,0.1157,-18.542,0.034,1,0,0,0,-0.75,0,0,0,0.3247,0,0.5,0,0,1,0,0,0,0,0,0,0,0,0,0,5.9402,3.7714,0,0,0,0,0,0,0,0,0,0,0,0,36.8125,0,0,0,-2.0374,-2.663,1.8791,18901.8867,0.8531,0,333999.9688,43,28,150,42,15,0.9,18.3,1,0,0,20.4443,3,0,0,0.0494,-120.7952,0,331.0641,9903500,10000,40.8484,-80.3442,13.8914
3.45,9.1394,3,0,0,0.0494,-120.7952,0,331.0641,200,10000,10000,40.84836807,-80.34420897,40.7812,11.272,0,13.8219,-3.6086,10.0813,-2.7793,-0.0072,-0.0314,-0.9954,1.1426,-0.0992,-0.4977,41.0417,0,35.8655,33.7928,35.2655,0,40.1036,0,0,0.4725,0.5725,1.2667,-0.1961,-0.9706,0,0.798,-1.8471,-0.6686,-18.542,0.034,1,0,0,0,-0.8971,0,0,0,0.1677,0,0.5774,0,0,1,0,0,0,0,0,0,0,0,0,0,5.9678,3.7714,0,0,0,0,0,0,0,0,0,0,0,0,36.8125,0,0,0,-2.0576,-2.6782,2.0772,19005.6602,0.9031,0,333999.9688,43,28,150,42,15,0.9,18.3,1,0,0,20.4443,3,0,0,0.0494,-120.7952,0,331.0641,9903500,10000,40.8484,-80.3442,14.0956
3.5,9.1394,3,0,0,0.0494,-120.7952,0,331.0641,200,10000,10000,40.84836807,-80.34420897,40.7812,11.272,0,13.8203,-3.6047,10.0406,-2.7953,-0.0068,-0.0306,-0.9961,1.167,-0.1061,-0.5063,40.9115,0,35.8705,33.8228,35.2705,0,40.0886,0,0,0.3588,0.4588,0.7824,-0.1059,-0.6706,0,0.6588,-1.2412,-0.5118,-18.542,0.034,1,0,0,0,-0.3716,0,0,0,-0.1548,0,0.6849,0,0,1,0,0,0,0,0,0,0,0,0,0,5.9777,3.7714,0,0,0,0,0,0,0,0,0,0,0,0,36.8125,0,0,0,-2.0424,-2.6668,2.0959,19027.9805,0.953,0,333999.9688,43,28,150,42,15,0.9078,18.2922,1,0,0,20.4443,3,0,0,0.0494,-120.7952,0,331.0641,9903500,10000,40.8484,-80.3442,14.2999
3.55,9.1394,3,0,0,0.0494,-120.7952,0,331.0641,200,10000,10000,40.84836807,-80.34420897,40.7812,11.272,0,13.8266,-3.5828,10.0781,-2.7766,-0.0083,-0.0318,-0.9963,1.1694,-0.1192,-0.4862,40.7812,0,35.8755,33.8527,35.2754,0,40.0737,0,0,0.2118,0.3118,0.2431,-0.0078,-0.3275,0,0.5118,-0.5549,-0.3157,-18.542,0.034,1,0,0,0,0.1676,0,0,0,-0.2925,0,0.7462,0,0,1,0,0,0,0,0,0,0,0,0,0,5.9777,3.7714,0,0,0,0,0,0,0,0,0,0,0,0,36.8125,0,0,0,-2.0224,-2.6518,1.8218,18917.4043,0.997,0,333999.9688,43,28,150,42,15,0.9563,18.2437,1,0,0,20.4443,3,0,0,0.0494,-120.7952,0,331.0641,9903500,10000,40.8484,-80.3442,14.5042
3.6,9.1394,3,0,0,0.0494,-120.7952,0,331.0641,200,10000,10000,40.84836807,-80.34420897,40.7812,11.272,0,13.8281,-3.6008,10.0594,-2.7914,-0.0059,-0.0334,-0.9946,1.1289,-0.1041,-0.4707,40.651,0,35.8804,33.8826,35.2804,0,40.0587,0,0,-0.3412,-0.3314,-0.3412,0.0451,0.2412,0,0.5451,0.4471,0.2863,-18.542,0.034,1,0,0,0,0.4765,0,0,0,-0.4,0,0.8,0,0,1,0,0,0,0,0,0,0,0,0,0,5.9777,3.7532,0,0,0,0,0,0,0,0,0,0,0,0,36.8125,0,0,0,-2.02,-2.6621,1.7014,18857.1426,0.9469,0,333999.9688,43,28,150,42,15,0.9952,18.2095,1,0,0,20.4443,3,0,0,0.0494,-120.7952,0,331.0641,9903500,10000,40.8484,-80.3442,14.7085
3.65,9.1394,3,0,0,0.0494,-120.7952,0,331.0641,200,10000,10000,40.84836807,-80.34420897,40.7812,11.272,0,13.85,-3.598,10.0859,-2.773,-0.0062,-0.03,-0.9956,1.1113,-0.1008,-0.4647,40.5312,0,35.8854,33.9126,35.2854,0,40.0437,0,0,-0.9294,-1.0176,-0.9294,0.0941,0.8294,0,0.5941,1.4765,0.9235,-18.542,0.034,1,0,0,0,0.7706,0,0,0,0.0301,0,0.6387,0,0,1,0,0,0,0,0,0,0,0,0,0,5.9777,3.7256,0,0,0,0,0,0,0,0,0,0,0,0,36.8125,0,0,0,-2.02,-2.6759,1.9395,18914.2852,0.8969,0,333999.9688,43,28,150,42,15,0.9476,18.3048,1,0,0,20.4443,3,0,0,0.0494,-120.7952,0,331.0641,9903500,10000,40.8484,-80.3442,14.9128
3.7,9.1394,3,0,0,0.0494,-120.7952,0,331.0641,200,10000,10000,40.84836807,-80.34420897,40.7812,11.272,0,13.8047,-3.6152,10.0953,-2.7812,-0.0067,-0.0298,-0.9946,1.1357,-0.0955,-0.5078,40.4141,0,35.8904,33.9425,35.2904,0,40.0287,0,0,-1,-0.7118,-0.7843,0.0569,0.598,0,0.6,1.3412,1,-18.542,0.034,1,0,0,0,0.6676,0,0,0,0.3473,0,0.5075,0,0,1,0,0,0,0,0,0,0,0,0,0,5.9777,3.7163,0,0,0,0,0,0,0,0,0,0,0,0,36.8125,0,0,0,-2.02,-2.6555,2.1363,18958.1973,0.8468,0,333999.9688,43,28,150,42,15,0.9,18.4,1,0,0,20.4443,3,0,0,0.0494,-120.7952,0,331.0641,9903500,10000,40.8484,-80.3442,15.1171
3.75,9.1394,3,0,0,0.0494,-120.7952,0,331.0641,200,10000,10000,40.84836807,-80.34420897,40.7812,11.2733,0,13.8016,-3.5949,10.0922,-2.7859,-0.0071,-0.0326,-0.9954,1.1514,-0.0867,-0.5225,40.2969,0,35.8954,33.9725,35.2954,0,40.0138,0,0,-1,-0.2706,-0.5392,0.0078,0.2549,0,0.6,1.0471,1,-18.542,0.034,1,0,0,0,0.5206,0,0,0,-0.029,0,0.5613,0,0,1,0,0,0,0,0,0,0,0,0,0,5.9777,3.7163,0,0,0,0,0,0,0,0,0,0,0,0,36.8125,0,0,0,-2.02,-2.6205,2.1678,18949.1895,0.7968,0,333999.9688,43,28,150,42,15,0.9,18.4,1,0,0,20.4443,3,0,0,0.0494,-120.7952,0,331.0641,9903500,10000,40.8484,-80.3442,15.3214
3.8,9.1394,3,0,0,0.0494,-120.7952,0,331.0641,200,10000,10000,40.84836807,-80.34420897,40.7812,11.2767,0,13.8453,-3.6156,10.0375,-2.8043,-0.0066,-0.0323,-0.9956,1.1543,-0.0804,-0.521,40.1797,0,35.9,34.0024,35.3,0,40,0,0,-0.8353,-0.4471,-0.5824,-0.1647,0.3235,0,0.6,1,0.8765,-18.542,0.034,1,0,0,0,0.1206,0,0,0,-0.3301,0,0.6151,0,0,1,0,0,0,0,0,0,0,0,0,0,5.9777,3.7163,0,0,0,0,0,0,0,0,0,0,0,0,36.8125,0,0,0,-2.02,-2.624,2.1994,18940.1797,0.7467,0,333999.9688,43,28,150,42,15,0.9,18.4,1,0,0,20.4443,3,0,0,0.0494,-120.7952,0,331.0641,9903500,10000,40.8484,-80.3442,15.5256
3.85,9.1394,3,0,0,0.0494,-120.7952,0,331.0641,200,10000,10000,40.84836807,-80.34420897,40.7812,11.28,0,13.8172,-3.607,10.1406,-2.7762,-0.007,-0.0299,-0.9946,1.1562,-0.0849,-0.5178,40.0625,0,35.9,34.0323,35.3,0,40,0,0,-0.6392,-0.7412,-0.6804,-0.3608,0.4706,0,0.6,1,0.7294,-18.542,0.034,1,0,0,0,-0.3206,0,0,0,-0.4376,0,0.6688,0,0,1,0,0,0,0,0,0,0,0,0,0,5.9777,3.7163,0,0,0,0,0,0,0,0,0,0,0,0,36.8125,0,0,0,-2.02,-2.644,2.0302,18906.0391,0.6967,0,333999.9688,43,28,150,42,15,0.9452,18.4,1,0,0,20.4443,3,0,0,0.0494,-120.7952,0,331.0641,9903500,10000,40.8484,-80.3442,15.7299
3.9,9.1394,3,0,0,0.0494,-120.7952,0,331.0641,200,10000,10000,40.84836807,-80.34420897,40.7812,11.28,0,13.8313,-3.5945,10.1156,-2.7871,-0.0073,-0.0305,-0.9951,1.1465,-0.0727,-0.4885,39.9583,0,35.9,34.0623,35.3,0,40,0,0,-0.1686,-0.4863,-0.3863,-0.4,0.2647,0,0.6,0.4118,0.2294,-18.542,0.034,1,0,0,0,-0.3196,0,0,0,-0.4774,0,0.6774,0,0,1,0,0,0,0,0,0,0,0,0,0,5.9777,3.7352,0,0,0,0,0,0,0,0,0,0,0,0,36.8125,0,0,0,-2.02,-2.65,1.8569,18871.3867,0.6466,0,333999.9688,43,28,150,42,15,0.9933,18.4,1,0,0,20.4443,3,0,0,0.0494,-120.7952,0,331.0641,9903500,10000,40.8484,-80.3442,15.9342
3.95,9.1394,3,0,0,0.0494,-120.7952,0,331.0641,200,10000,10000,40.84836807,-80.34420897,40.7812,11.28,0,13.8391,-3.5949,10.0344,-2.7859,-0.0065,-0.0329,-0.9963,1.1519,-0.1115,-0.4714,39.8542,0,35.9,34.0922,35.3,0,40,0,0,0.3706,-0.0941,0.0059,-0.4,-0.0294,0,0.6,-0.3235,-0.3588,-18.542,0.034,1,0,0,0,-0.2216,0,0,0,-0.4237,0,0.6237,0,0,1,0,0,0,0,0,0,0,0,0,0,5.9777,3.7631,0,0,0,0,0,0,0,0,0,0,0,0,36.8125,0,0,0,-2.02,-2.65,2.01,18956.8574,0.5966,0,333999.9688,43,28,150,42,15,0.959,18.3181,1,0,0,20.4443,3,0,0,0.0494,-120.7952,0,331.0641,9903500,10000,40.8484,-80.3442,16.1385
4,9.1394,3,0,0,0.0494,-120.7952,0,331.0641,200,10000,10000,40.84836807,-80.34420897,40.7812,11.28,0,13.8297,-3.598,10.0375,-2.7914,-0.0057,-0.0338,-0.9966,1.1631,-0.1578,-0.4824,39.75,0,35.9,34.1222,35.3,0,40,0,0,0.3137,-0.0745,0.0255,-0.1392,-0.0627,0,0.5627,-0.3137,-0.3137,-18.542,0.034,1,0,0,0,-0.1235,0,0,0,-0.1892,0,0.6301,0,0,1,0,0,0,0,0,0,0,0,0,0,5.9777,3.7539,0,0,0,0,0,0,0,0,0,0,0,0,36.8125,0,0,0,-2.0101,-2.6368,2.1767,19047.334,0.5465,0,333999.9688,43,28,150,42,15,0.9114,18.2229,1,0,0,20.4443,3,0,0,0.0494,-120.7952,0,331.0641,9903500,10000,40.8484,-80.3442,16.3428
4.05,9.1394,3,0,0,0.0494,-120.7952,0,331.0641,200,10000,10000,40.84836807,-80.34420897,40.7812,11.28,0,13.8156,-3.6016,10.0625,-2.8023,-0.0058,-0.0313,-0.9954,1.1353,-0.1403,-0.4921,39.6458,0,35.9,34.1521,35.3,0,40,0,0,0.0686,-0.1725,-0.0725,0.2039,-0.0137,0,0.5137,-0.0686,-0.0686,-18.542,0.034,1,0,0,0,-0.0255,0,0,0,0.1871,0,0.6839,0,0,1,0,0,0,0,0,0,0,0,0,0,5.9777,3.7288,0,0,0,0,0,0,0,0,0,0,0,0,36.8125,0,0,0,-1.9963,-2.6184,2.1148,19003.207,0.4965,0,333999.9688,43,28,150,42,15,0.9369,18.2369,1,0,0,20.4443,3,0,0,0.0494,-120.7952,0,331.0641,9903500,10000,40.8484,-80.3442,16.5471
4.1,9.1394,3,0,0,0.0494,-120.7952,0,331.0641,200,10000,10000,40.84836807,-80.34420897,40.7812,11.28,0,13.8578,-3.6055,10.0516,-2.7965,-0.0069,-0.0299,-0.9946,1.1162,-0.1204,-0.4807,39.5443,0,35.9,34.182,35.3,0,40,0,0,-0.2118,-0.2,-0.0647,-0.1235,0,0,0.5353,0.1059,0.2118,-18.542,0.034,1,0,0,0,0.0363,0,0,0,-0.0011,0,0.7,0,0,1,0,0,0,0,0,0,0,0,0,0,5.9777,3.7163,0,0,0,0,0,0,0,0,0,0,0,0,36.8125,0,0,0,-1.9981,-2.6208,2.0158,18937.1699,0.4464,0,333999.9688,43,28,150,42,15,0.9854,18.2854,1,0,0,20.4443,3,0,0,0.0494,-120.7952,0,331.0641,9903500,10000,40.8484,-80.3442,16.7513
4.15,9.1394,3,0,0,0.0494,-120.7952,0,331.0641,200,10000,10000,40.84836807,-80.34420897,40.7812,11.28,0,13.8453,-3.6008,10.0875,-2.7859,-0.0065,-0.0306,-0.9941,1.1416,-0.1006,-0.5066,39.4531,0,35.9,34.212,35.3,0,40,0,0,-0.5059,-0.2,-0.0157,-0.7118,0,0,0.5843,0.2529,0.5059,-18.542,0.034,1,0,0,0,0.0853,0,0,0,-0.4312,0,0.7,0,0,1,0,0,0,0,0,0,0,0,0,0,5.9777,3.7163,0,0,0,0,0,0,0,0,0,0,0,0,36.8125,0,0,0,-2.0131,-2.6408,1.8913,18941.1426,0.3964,0,333999.9688,43,28,150,42,15,1,18.3337,1,0,0,20.4443,3,0,0,0.0494,-120.7952,0,331.0641,9903500,10000,40.8484,-80.3442,16.9556
4.2,9.1394,3,0,0,0.0494,-120.7952,0,331.0641,200,10000,10000,40.84836807,-80.34420897,40.7812,11.28,0,13.8313,-3.6031,10.1,-2.7852,-0.006,-0.0304,-0.9951,1.1611,-0.082,-0.5283,39.362,0,35.9,34.2419,35.3,0,40,0,0,-0.7333,-0.4,-0.2333,-0.4333,0,0,0.6,0.6,0.7333,-18.542,0.034,1,0,0,0,0.2716,0,0,0,-0.2742,0,0.6548,0,0,1,0,0,0,0,0,0,0,0,0,0,5.9777,3.7163,0,0,0,0,0,0,0,0,0,0,0,0,36.8125,0,0,0,-2.0118,-2.65,1.758,18969.7148,0.3463,0,333999.9688,43,28,150,42,15,1,18.3817,1,0,0,20.4443,3,0,0,0.0494,-120.7952,0,331.0641,9903500,10000,40.8484,-80.3442,17.1599
4.25,9.1394,3,0,0,0.0494,-120.7952,0,331.0641,200,10000,10000,40.84836807,-80.34420897,40.7812,11.28,0,13.8328,-3.5992,10.0656,-2.7789,-0.0068,-0.0306,-0.9956,1.1421,-0.0886,-0.5256,39.2917,0,35.9,34.2719,35.3,0,40,0,0,-0.9294,-0.6941,-0.5765,0.2529,0,0,0.6,1.0412,0.9294,-18.542,0.034,1,0,0,0,0.5167,0,0,0,-0.0054,0,0.6011,0,0,1,0,0,0,0,0,0,0,0,0,0,5.9777,3.7163,0,0,0,0,0,0,0,0,0,0,0,0,36.8125,0,0,0,-1.9967,-2.65,1.7953,18989.1426,0.2963,0,333999.9688,43,28,150,41.7115,15,1,18.3705,1,0,0,20.4443,3,0,0,0.0494,-120.7952,0,331.0641,9903500,10000,40.8484,-80.3442,17.3642
4.3,9.1394,3,0,0,0.0494,-120.7952,0,331.0641,200,10000,10000,40.84836807,-80.34420897,40.7812,11.28,0,13.8469,-3.6074,10.1125,-2.7781,-0.006,-0.0317,-0.9946,1.1348,-0.0858,-0.5264,39.2266,0,35.9,34.3018,35.3,0,40,0,0,-0.9373,-0.8,-0.7,0.3745,0.2196,0,0.5686,1.1373,0.9373,-18.542,0.034,1,0,0,0,0.1794,0,0,0,-0.2634,0,0.6527,0,0,1,0,0,0,0,0,0,0,0,0,0,5.9777,3.7163,0,0,0,0,0,0,0,0,0,0,0,0,36.8125,0,0,0,-1.9984,-2.65,1.9287,19003.4277,0.2462,0,333999.9688,43,28,150,41.2308,15,1,18.3229,1,0,0,20.4443,3,0,0,0.0494,-120.7952,0,331.0641,9903500,10000,40.8484,-80.3442,17.5685
4.35,9.1394,3,0,0,0.0494,-120.7952,0,331.0641,200,10000,10000,40.84836807,-80.34420897,40.7812,11.28,0,13.8109,-3.6102,10.0969,-2.784,-0.0047,-0.0321,-0.9954,1.1099,-0.0629,-0.519,39.1823,0,35.9,34.3317,35.3,0,40,0,0,-0.8392,-0.8,-0.7,0.1784,0.5627,0,0.5196,1.0392,0.8392,-18.542,0.034,1,0,0,0,-0.4578,0,0,0,-0.5,0,0.6935,0,0,1,0,0,0,0,0,0,0,0,0,0,5.9777,3.7163,0,0,0,0,0,0,0,0,0,0,0,0,36.8125,0,0,0,-2.0134,-2.65,1.954,18971.4277,0.1962,0,333999.9688,43,28,150,41,15,1,18.3,1,0,0,20.4443,3,0,0,0.0494,-120.7952,0,331.0641,9903500,10000,40.8484,-80.3442,17.7728
4.4,9.1394,3,0,0,0.0494,-120.7952,0,331.0641,200,10000,10000,40.84836807,-80.34420897,40.7812,11.28,0,13.8125,-3.6035,10.0406,-2.7965,-0.0052,-0.0318,-0.9951,1.1074,-0.0843,-0.5059,39.1693,0,35.9,34.3617,35.3,0,40,0,0,-0.8,-0.9176,-0.7588,0.3059,0.8176,0,0.5588,1.0882,0.8,-18.542,0.034,1,0,0,0,-0.2745,0,0,0,-0.5,0,0.6398,0,0,1,0,0,0,0,0,0,0,0,0,0,5.9652,3.7163,0,0,0,0,0,0,0,0,0,0,0,0,36.8125,0,0,0,-2.02,-2.6397,1.8873,18900,0.1461,0,333999.9688,43,28,150,41,15,1,18.3,1,0,0,20.4443,3,0,0,0.0494,-120.7952,0,331.0641,9903500,10000,40.8484,-80.3442,17.9771
4.45,9.1394,3,0,0,0.0494,-120.7952,0,331.0641,200,10000,10000,40.84836807,-80.34420897,40.7812,11.28,0,13.8203,-3.6145,10.1094,-2.7766,-0.0067,-0.0302,-0.9946,1.1357,-0.1103,-0.532,39.1562,0,35.9,34.3916,35.3,0,40,0,0,-0.8,-1.1137,-0.8569,0.649,1.0137,0,0.6569,1.2353,0.8,-18.542,0.034,1,0,0,0,0.4118,0,0,0,-0.514,0,0.6,0,0,1,0,0,0,0,0,0,0,0,0,0,5.9421,3.7163,0,0,0,0,0,0,0,0,0,0,0,0,36.8125,0,0,0,-2.02,-2.6214,1.8043,18864.1504,0.0961,0,333999.9688,43,28,150,41,15,1,18.2781,1,0,0,20.4443,3,0,0,0.0494,-120.7952,0,331.0641,9903500,10000,40.8484,-80.3442,18.1813
4.5,9.1394,3,0,0,0.0494,-120.7952,0,331.0641,200,10000,10000,40.84836807,-80.34420897,40.7812,11.28,0,13.8281,-3.6234,10.125,-2.784,-0.0061,-0.0313,-0.9956,1.165,-0.1134,-0.5303,39.1953,0,35.9,34.4216,35.3,0,40,0,0,-0.5804,-0.8157,-0.6804,0.5255,0.8529,0,0.7,0.9431,0.5529,-18.542,0.034,1,0,0,0,0.501,0,0,0,-0.5677,0,0.6,0,0,1,0,0,0,0,0,0,0,0,0,0,5.927,3.7163,0,0,0,0,0,0,0,0,0,0,0,0,36.8125,0,0,0,-2.02,-2.6233,1.7006,18873.584,0.046,0,333999.9688,43,28,150,41,15,1,18.2305,1,0,0,20.4443,3,0,0,0.0494,-120.7952,0,331.0641,9903500,10000,40.8484,-80.3442,18.3856
4.55,9.1394,3,0,0,0.0494,-120.7952,0,331.0641,200,10000,10000,40.84836807,-80.34420897,40.7812,11.28,0,13.8359,-3.5965,10.1203,-2.7824,-0.0049,-0.0324,-0.9956,1.1548,-0.1035,-0.4862,39.2344,0,35.9,34.4515,35.3,0,40,0,0,-0.1882,-0.1294,-0.2882,0.0353,0.4118,0,0.7,0.3059,0.1118,-18.542,0.034,1,0,0,0,0.1578,0,0,0,-0.4065,0,0.557,0,0,1,0,0,0,0,0,0,0,0,0,0,5.9546,3.7163,0,0,0,0,0,0,0,0,0,0,0,0,36.8125,0,0,0,-2.02,-2.6583,1.6635,18878.4766,0.004,0,333999.9688,43,28,150,41,15,0.9827,18.2173,1,0,0,20.4443,3,0,0,0.0494,-120.7952,0,331.0641,9903500,10000,40.8484,-80.3442,18.5899
4.6,9.1394,3,0,0,0.0494,-120.7952,0,331.0641,200,10000,10000,40.84836807,-80.34420897,40.7812,11.28,0,13.8422,-3.6066,10.0484,-2.7551,-0.0051,-0.0321,-0.9961,1.1328,-0.0897,-0.48,39.2812,0,35.9,34.4814,35.3,0,40,0,0,-0.051,0.2765,-0.1255,-0.149,0.1235,0,0.6235,0.051,-0.0235,-18.542,0.034,1,0,0,0,0.0265,0,0,0,0.0774,0,0.4495,0,0,1,0,0,0,0,0,0,0,0,0,0,5.9733,3.7207,0,0,0,0,0,0,0,0,0,0,0,0,36.8125,0,0,0,-2.02,-2.6742,1.7683,18873.7148,0.054,0,333999.9688,43,28,150,41,15,0.9346,18.2654,1,0,0,20.4443,3,0,0,0.0494,-120.7952,0,331.0641,9903500,10000,40.8484,-80.3442,18.7942
4.65,9.1394,3,0,0,0.0494,-120.7952,0,331.0641,200,10000,10000,40.84836807,-80.34420897,40.7812,11.28,0,13.8375,-3.6113,10.0312,-2.7996,-0.0064,-0.0311,-0.9961,1.1411,-0.0694,-0.5183,39.3333,0,35.9,34.5114,35.3,0,40,0,0,-0.149,0.4235,-0.1745,-0.051,-0.0235,0,0.4765,0.149,0.1235,-18.542,0.034,1,0,0,0,0.0755,0,0,0,0.1258,0,0.4581,0,0,1,0,0,0,0,0,0,0,0,0,0,5.9454,3.7486,0,0,0,0,0,0,0,0,0,0,0,0,36.8125,0,0,0,-2.02,-2.6591,1.8199,18865.8496,0.104,0,333999.9688,43,28,150,41,15,0.9269,18.3,1,0,0,20.4443,3,0,0,0.0494,-120.7952,0,331.0641,9903500,10000,40.8484,-80.3442,18.9985
4.7,9.1394,3,0,0,0.0494,-120.7952,0,331.0641,200,10000,10000,40.84836807,-80.34420897,40.7812,11.2807,0,13.8641,-3.6051,10.1078,-2.7707,-0.0068,-0.0315,-0.9956,1.1279,-0.0672,-0.5474,39.3854,0,35.9,34.5413,35.3,0,40,0,0,-0.1294,0.3824,-0.1294,-0.0471,-0.0765,0,0.4471,0.1059,0.1059,-18.542,0.034,1,0,0,0,0.051,0,0,0,-0.1968,0,0.5656,0,0,1,0,0,0,0,0,0,0,0,0,0,5.9275,3.7714,0,0,0,0,0,0,0,0,0,0,0,0,36.8125,0,0,0,-2.0273,-2.6628,1.6831,18846.9805,0.154,0,333999.9688,43,28,150,41,15,1.0231,18.3,1,0,0,20.4443,3,0,0,0.0494,-120.7952,0,331.0641,9903500,10000,40.8484,-80.3442,19.2028
4.75,9.1394,3,0,0,0.0494,-120.7952,0,331.0641,200,10000,10000,40.84836807,-80.34420897,40.7812,11.284,0,13.8188,-3.6063,10.0594,-2.7918,-0.0052,-0.0319,-0.9951,1.1299,-0.0802,-0.5422,39.4375,0,35.9,34.5713,35.3,0,40,0,0,0.0176,0.1373,0.0176,-0.1451,-0.0275,0,0.5451,-0.0902,-0.0902,-18.542,0.034,1,0,0,0,-0.0471,0,0,0,-0.0441,0,0.6366,0,0,1,0,0,0,0,0,0,0,0,0,0,5.9551,3.7714,0,0,0,0,0,0,0,0,0,0,0,0,36.8125,0,0,0,-2.0457,-2.695,1.5738,18830.9531,0.204,0,333999.9688,43,28,150,41,15,1.0806,18.3097,1,0,0,20.4443,3,0,0,0.0494,-120.7952,0,331.0641,9903500,10000,40.8484,-80.3442,19.407
4.8,9.1394,3,0,0,0.0494,-120.7952,0,331.0641,200,10000,10000,40.84836807,-80.34420897,40.7812,11.2873,0,13.8406,-3.6117,10.0344,-2.8043,-0.0043,-0.0302,-0.9951,1.1699,-0.0684,-0.5073,39.4896,0,35.9,34.601,35.3,0,39.9998,0,0,0.2078,0.1725,0.0784,-0.2,-0.0216,0,0.5784,-0.2647,-0.3294,-18.542,0.034,1,0,0,0,-0.1225,0,0,0,0.3323,0,0.6903,0,0,1,0,0,0,0,0,0,0,0,0,0,5.9777,3.7679,0,0,0,0,0,0,0,0,0,0,0,0,36.8125,0,0,0,-2.0523,-2.7079,1.7119,18840.4766,0.254,0,333999.9688,43,28,150,41,15,0.9835,18.3583,1,0,0,20.4443,3,0,0,0.0494,-120.7952,0,331.0641,9903500,10000,40.8484,-80.3442,19.6113
4.85,9.1394,3,0,0,0.0494,-120.7952,0,331.0641,200,10000,10000,40.84836807,-80.34420897,40.7812,11.288,0,13.8281,-3.6031,10.0938,-2.7801,-0.006,-0.0318,-0.9956,1.1606,-0.0702,-0.4751,39.5625,0,35.9,34.6259,35.3,0,39.9948,0,0,0.4529,0.5647,0.0294,-0.2,-0.0706,0,0.5294,-0.4118,-0.6235,-18.542,0.034,1,0,0,0,-0.1716,0,0,0,0.2677,0,0.7,0,0,1,0,0,0,0,0,0,0,0,0,0,5.9777,3.748,0,0,0,0,0,0,0,0,0,0,0,0,36.8125,0,0,0,-2.0173,-2.6529,1.85,18850,0.304,0,333999.9688,43,28,150,41,15,0.9,18.4,1,0,0,20.4443,3,0,0,0.0494,-120.7952,0,331.0641,9903500,10000,40.8484,-80.3442,19.8156
4.9,9.1394,3,0,0,0.0494,-120.7952,0,331.0641,200,10000,10000,40.84836807,-80.34420897,40.7812,11.288,0,13.8297,-3.6137,10.1266,-2.7801,-0.0065,-0.0319,-0.9941,1.1279,-0.0766,-0.4731,39.6406,0,35.9,34.6509,35.3,0,39.9898,0,0,0.6,0.8,0.1176,-0.2392,-0.2176,0,0.5196,-0.6176,-0.8,-18.542,0.034,1,0,0,0,-0.2618,0,0,0,0.1065,0,0.7,0,0,1,0,0,0,0,0,0,0,0,0,0,5.9777,3.7282,0,0,0,0,0,0,0,0,0,0,0,0,36.8125,0,0,0,-1.9933,-2.6178,1.7833,18826.1914,0.354,0,333999.9688,43,28,150,41,15,0.9,18.4,1,0,0,20.4443,3,0,0,0.0494,-120.7952,0,331.0641,9903500,10000,40.8484,-80.3442,20.0199
4.95,9.1394,3,0,0,0.0494,-120.7952,0,331.0641,200,10000,10000,40.84836807,-80.34420897,40.7812,11.288,0,13.8297,-3.6262,10.0516,-2.7988,-0.0052,-0.0296,-0.9944,1.1367,-0.0515,-0.4906,39.7396,0,35.9,34.6758,35.3,0,39.9848,0,0,0.6,0.8,0.4118,-0.3373,-0.5118,0,0.5686,-0.9118,-0.8,-18.542,0.034,1,0,0,0,-0.4088,0,0,0,0.1,0,0.6484,0,0,1,0,0,0,0,0,0,0,0,0,0,5.9666,3.7274,0,0,0,0,0,0,0,0,0,0,0,0,36.8125,0,0,0,-2.0085,-2.6531,1.7167,18802.3809,0.404,0,333999.9688,43,28,150,41,15,0.9,18.3971,1,0,0,20.4443,3,0,0,0.0494,-120.7952,0,331.0641,9903500,10000,40.8484,-80.3442,20.2242
5,9.1394,3,0,0,0.0494,-120.7952,0,331.0641,200,10000,10000,40.84836807,-80.34420897,40.7812,11.288,0,13.8266,-3.607,10.025,-2.7887,-0.0059,-0.03,-0.9946,1.1523,-0.0535,-0.4919,39.8698,0,35.9,34.7008,35.3,0,39.9798,0,0,0.5294,0.7824,0.4588,-0.4,-0.5941,0,0.6,-0.9059,-0.7118,-18.542,0.034,1,0,0,0,-0.4069,0,0,0,0.0839,0,0.6054,0,0,1,0,0,0,0,0,0,0,0,0,0,5.9387,3.7553,0,0,0,0,0,0,0,0,0,0,0,0,36.8125,0,0,0,-2.0248,-2.68,2.0443,18928.5723,0.454,0,333999.9688,43,28,150,41,15,0.9,18.3495,1,0,0,20.4443,3,0,0,0.0494,-120.7952,0,331.0641,9903500,10000,40.8484,-80.3442,20.4285
5.05,9.1394,3,0,0,0.0494,-120.7952,0,331.0641,200,10000,10000,40.84836807,-80.34420897,40.7812,11.288,0,13.8344,-3.6102,10.1094,-2.7852,-0.0097,-0.0327,-0.9946,1.1343,-0.0931,-0.4984,40,0,35.9,34.7257,35.3,0,39.9748,0,0,0.3333,0.7333,0.0667,-0.4,-0.3,0,0.6,-0.3667,-0.4667,-18.542,0.034,1,0,0,0,-0.1618,0,0,0,-0.0774,0,0.6591,0,0,1,0,0,0,0,0,0,0,0,0,0,5.9342,3.7714,0,0,0,0,0,0,0,0,0,0,0,0,36.8125,0,0,0,-2.0448,-2.68,2.4157,19071.4277,0.504,0,333999.9688,43,28,150,41,15,0.9,18.3019,1,0,0,20.4443,3,0,0,0.0494,-120.7952,0,331.0641,9903500,10000,40.8484,-80.3442,20.6328
